{ "type": "Feature", "properties": { "county": "Bladen", "state": "North Carolina", "fips": "37017", "cases": 1814, "deaths": 24 }, "geometry": { "type": "Point", "coordinates": [ -78.5618006, 34.6129624 ] } }
{ "type": "Feature", "properties": { "county": "Stanly", "state": "North Carolina", "fips": "37167", "cases": 4287, "deaths": 78 }, "geometry": { "type": "Point", "coordinates": [ -80.250943, 35.3164774 ] } }
{ "type": "Feature", "properties": { "county": "Summit", "state": "Ohio", "fips": "39153", "cases": 27614, "deaths": 577 }, "geometry": { "type": "Point", "coordinates": [ -81.5312308, 41.1246473 ] } }
{ "type": "Feature", "properties": { "county": "Sullivan", "state": "Pennsylvania", "fips": "42113", "cases": 143, "deaths": 2 }, "geometry": { "type": "Point", "coordinates": [ -76.5124659, 41.4463474 ] } }
{ "type": "Feature", "properties": { "county": "Upshur", "state": "Texas", "fips": "48459", "cases": 1746, "deaths": 31 }, "geometry": { "type": "Point", "coordinates": [ -94.9385697, 32.7393634 ] } }
{ "type": "Feature", "properties": { "county": "Brown", "state": "Texas", "fips": "48049", "cases": 2726, "deaths": 73 }, "geometry": { "type": "Point", "coordinates": [ -98.9990722, 31.7742976 ] } }
{ "type": "Feature", "properties": { "county": "Cherokee", "state": "South Carolina", "fips": "45021", "cases": 3014, "deaths": 77 }, "geometry": { "type": "Point", "coordinates": [ -81.6184624, 35.0511336 ] } }
{ "type": "Feature", "properties": { "county": "Cullman", "state": "Alabama", "fips": "01043", "cases": 6989, "deaths": 76 }, "geometry": { "type": "Point", "coordinates": [ -86.8688795, 34.1302019 ] } }
{ "type": "Feature", "properties": { "county": "Grant", "state": "West Virginia", "fips": "54023", "cases": 755, "deaths": 17 }, "geometry": { "type": "Point", "coordinates": [ -79.1944052, 39.1031482 ] } }
{ "type": "Feature", "properties": { "county": "Haakon", "state": "South Dakota", "fips": "46055", "cases": 233, "deaths": 7 }, "geometry": { "type": "Point", "coordinates": [ -101.5382456, 44.2945114 ] } }
{ "type": "Feature", "properties": { "county": "Kewaunee", "state": "Wisconsin", "fips": "55061", "cases": 2164, "deaths": 25 }, "geometry": { "type": "Point", "coordinates": [ -87.6146839, 44.5172746 ] } }
{ "type": "Feature", "properties": { "county": "Fulton", "state": "Indiana", "fips": "18049", "cases": 1380, "deaths": 25 }, "geometry": { "type": "Point", "coordinates": [ -86.2625274, 41.0469907 ] } }
{ "type": "Feature", "properties": { "county": "Hardin", "state": "Iowa", "fips": "19083", "cases": 1450, "deaths": 25 }, "geometry": { "type": "Point", "coordinates": [ -93.2365461, 42.3835388 ] } }
{ "type": "Feature", "properties": { "county": "Neosho", "state": "Kansas", "fips": "20133", "cases": 1192, "deaths": 12 }, "geometry": { "type": "Point", "coordinates": [ -95.306824, 37.5582728 ] } }
{ "type": "Feature", "properties": { "county": "Pawnee", "state": "Nebraska", "fips": "31133", "cases": 157, "deaths": 1 }, "geometry": { "type": "Point", "coordinates": [ -96.2370544, 40.131411 ] } }
{ "type": "Feature", "properties": { "county": "Franklin", "state": "Alabama", "fips": "01059", "cases": 3233, "deaths": 36 }, "geometry": { "type": "Point", "coordinates": [ -87.842895, 34.4423533 ] } }
{ "type": "Feature", "properties": { "county": "Randolph", "state": "Missouri", "fips": "29175", "cases": 1593, "deaths": 16 }, "geometry": { "type": "Point", "coordinates": [ -92.4971374, 39.4400726 ] } }
{ "type": "Feature", "properties": { "county": "Los Alamos", "state": "New Mexico", "fips": "35028", "cases": 273, "deaths": 0 }, "geometry": { "type": "Point", "coordinates": [ -106.3134985, 35.8663139 ] } }
{ "type": "Feature", "properties": { "county": "Lee", "state": "North Carolina", "fips": "37105", "cases": 3475, "deaths": 39 }, "geometry": { "type": "Point", "coordinates": [ -79.1756936, 35.4762315 ] } }
{ "type": "Feature", "properties": { "county": "Putnam", "state": "Ohio", "fips": "39137", "cases": 3230, "deaths": 67 }, "geometry": { "type": "Point", "coordinates": [ -84.1336111, 41.0209489 ] } }
{ "type": "Feature", "properties": { "county": "Fairfield", "state": "South Carolina", "fips": "45039", "cases": 1355, "deaths": 53 }, "geometry": { "type": "Point", "coordinates": [ -81.1195624, 34.3928707 ] } }
{ "type": "Feature", "properties": { "county": "Bastrop", "state": "Texas", "fips": "48021", "cases": 3720, "deaths": 45 }, "geometry": { "type": "Point", "coordinates": [ -97.3120635, 30.103707 ] } }
{ "type": "Feature", "properties": { "county": "Sawyer", "state": "Wisconsin", "fips": "55113", "cases": 1229, "deaths": 10 }, "geometry": { "type": "Point", "coordinates": [ -91.1450493, 45.8793191 ] } }
{ "type": "Feature", "properties": { "county": "Hutchinson", "state": "Texas", "fips": "48233", "cases": 1161, "deaths": 48 }, "geometry": { "type": "Point", "coordinates": [ -101.3546643, 35.8400657 ] } }
{ "type": "Feature", "properties": { "county": "Douglas", "state": "Wisconsin", "fips": "55031", "cases": 3479, "deaths": 29 }, "geometry": { "type": "Point", "coordinates": [ -91.9159577, 46.4322228 ] } }
{ "type": "Feature", "properties": { "county": "Concho", "state": "Texas", "fips": "48095", "cases": 209, "deaths": 3 }, "geometry": { "type": "Point", "coordinates": [ -99.8647304, 31.3263593 ] } }
{ "type": "Feature", "properties": { "county": "Fluvanna", "state": "Virginia", "fips": "51065", "cases": 743, "deaths": 10 }, "geometry": { "type": "Point", "coordinates": [ -78.2771433, 37.8415589 ] } }
{ "type": "Feature", "properties": { "county": "Forest", "state": "Wisconsin", "fips": "55041", "cases": 899, "deaths": 24 }, "geometry": { "type": "Point", "coordinates": [ -88.7708489, 45.6667802 ] } }
{ "type": "Feature", "properties": { "county": "Muskegon", "state": "Michigan", "fips": "26121", "cases": 11067, "deaths": 269 }, "geometry": { "type": "Point", "coordinates": [ -86.1517671, 43.2912386 ] } }
{ "type": "Feature", "properties": { "county": "Becker", "state": "Minnesota", "fips": "27005", "cases": 2676, "deaths": 36 }, "geometry": { "type": "Point", "coordinates": [ -95.6715814, 46.9347939 ] } }
{ "type": "Feature", "properties": { "county": "Latimer", "state": "Oklahoma", "fips": "40077", "cases": 515, "deaths": 5 }, "geometry": { "type": "Point", "coordinates": [ -95.2502911, 34.8764565 ] } }
{ "type": "Feature", "properties": { "county": "Ouachita", "state": "Louisiana", "fips": "22073", "cases": 13725, "deaths": 283 }, "geometry": { "type": "Point", "coordinates": [ -92.1570219, 32.4764443 ] } }
{ "type": "Feature", "properties": { "county": "Choctaw", "state": "Alabama", "fips": "01023", "cases": 488, "deaths": 22 }, "geometry": { "type": "Point", "coordinates": [ -88.2656443, 32.0222734 ] } }
{ "type": "Feature", "properties": { "county": "Taylor", "state": "Florida", "fips": "12123", "cases": 1948, "deaths": 25 }, "geometry": { "type": "Point", "coordinates": [ -83.6044387, 30.0484747 ] } }
{ "type": "Feature", "properties": { "county": "Porter", "state": "Indiana", "fips": "18127", "cases": 12711, "deaths": 151 }, "geometry": { "type": "Point", "coordinates": [ -87.0684889, 41.4598695 ] } }
{ "type": "Feature", "properties": { "county": "Hamilton", "state": "Kansas", "fips": "20075", "cases": 186, "deaths": 0 }, "geometry": { "type": "Point", "coordinates": [ -101.7921066, 37.9997871 ] } }
{ "type": "Feature", "properties": { "county": "Ottawa", "state": "Michigan", "fips": "26139", "cases": 18516, "deaths": 272 }, "geometry": { "type": "Point", "coordinates": [ -85.9966846, 42.9599403 ] } }
{ "type": "Feature", "properties": { "county": "Manistee", "state": "Michigan", "fips": "26101", "cases": 609, "deaths": 15 }, "geometry": { "type": "Point", "coordinates": [ -86.0562692, 44.3335241 ] } }
{ "type": "Feature", "properties": { "county": "Cimarron", "state": "Oklahoma", "fips": "40025", "cases": 103, "deaths": 1 }, "geometry": { "type": "Point", "coordinates": [ -102.5173885, 36.7481718 ] } }
{ "type": "Feature", "properties": { "county": "Cavalier", "state": "North Dakota", "fips": "38019", "cases": 407, "deaths": 4 }, "geometry": { "type": "Point", "coordinates": [ -98.4668524, 48.7728621 ] } }
{ "type": "Feature", "properties": { "county": "Towner", "state": "North Dakota", "fips": "38095", "cases": 273, "deaths": 10 }, "geometry": { "type": "Point", "coordinates": [ -99.2456426, 48.6856574 ] } }
{ "type": "Feature", "properties": { "county": "White", "state": "Arkansas", "fips": "05145", "cases": 4641, "deaths": 69 }, "geometry": { "type": "Point", "coordinates": [ -91.749089, 35.2568784 ] } }
{ "type": "Feature", "properties": { "county": "Crisp", "state": "Georgia", "fips": "13081", "cases": 1372, "deaths": 39 }, "geometry": { "type": "Point", "coordinates": [ -83.7678903, 31.9229962 ] } }
{ "type": "Feature", "properties": { "county": "Candler", "state": "Georgia", "fips": "13043", "cases": 683, "deaths": 36 }, "geometry": { "type": "Point", "coordinates": [ -82.0770137, 32.4021147 ] } }
{ "type": "Feature", "properties": { "county": "Carroll", "state": "Indiana", "fips": "18015", "cases": 1310, "deaths": 15 }, "geometry": { "type": "Point", "coordinates": [ -86.5619881, 40.5807832 ] } }
{ "type": "Feature", "properties": { "county": "O'Brien", "state": "Iowa", "fips": "19141", "cases": 1587, "deaths": 53 }, "geometry": { "type": "Point", "coordinates": [ -95.6247448, 43.0831067 ] } }
{ "type": "Feature", "properties": { "county": "Mitchell", "state": "Kansas", "fips": "20123", "cases": 386, "deaths": 0 }, "geometry": { "type": "Point", "coordinates": [ -98.2091088, 39.3932979 ] } }
{ "type": "Feature", "properties": { "county": "Clark", "state": "Illinois", "fips": "17023", "cases": 1201, "deaths": 24 }, "geometry": { "type": "Point", "coordinates": [ -87.7870562, 39.3342579 ] } }
{ "type": "Feature", "properties": { "county": "Worcester", "state": "Maryland", "fips": "24047", "cases": 2123, "deaths": 46 }, "geometry": { "type": "Point", "coordinates": [ -75.3319001, 38.2129066 ] } }
{ "type": "Feature", "properties": { "county": "Benzie", "state": "Michigan", "fips": "26019", "cases": 658, "deaths": 26 }, "geometry": { "type": "Point", "coordinates": [ -86.0158936, 44.639357 ] } }
{ "type": "Feature", "properties": { "county": "Perkins", "state": "Nebraska", "fips": "31135", "cases": 230, "deaths": 11 }, "geometry": { "type": "Point", "coordinates": [ -101.6502942, 40.8508253 ] } }
{ "type": "Feature", "properties": { "county": "Stevens", "state": "Kansas", "fips": "20189", "cases": 526, "deaths": 6 }, "geometry": { "type": "Point", "coordinates": [ -101.3119467, 37.1922876 ] } }
{ "type": "Feature", "properties": { "county": "Perkins", "state": "South Dakota", "fips": "46105", "cases": 284, "deaths": 11 }, "geometry": { "type": "Point", "coordinates": [ -102.4755586, 45.4904951 ] } }
{ "type": "Feature", "properties": { "county": "Brunswick", "state": "Virginia", "fips": "51025", "cases": 630, "deaths": 7 }, "geometry": { "type": "Point", "coordinates": [ -77.8593436, 36.7636695 ] } }
{ "type": "Feature", "properties": { "county": "Patrick", "state": "Virginia", "fips": "51141", "cases": 750, "deaths": 28 }, "geometry": { "type": "Point", "coordinates": [ -80.2865648, 36.6801638 ] } }
{ "type": "Feature", "properties": { "county": "Pike", "state": "Alabama", "fips": "01109", "cases": 1990, "deaths": 23 }, "geometry": { "type": "Point", "coordinates": [ -85.9414953, 31.8041508 ] } }
{ "type": "Feature", "properties": { "county": "Barrow", "state": "Georgia", "fips": "13013", "cases": 5198, "deaths": 67 }, "geometry": { "type": "Point", "coordinates": [ -83.7143735, 33.9915153 ] } }
{ "type": "Feature", "properties": { "county": "Pike", "state": "Indiana", "fips": "18125", "cases": 912, "deaths": 27 }, "geometry": { "type": "Point", "coordinates": [ -87.2357491, 38.401122 ] } }
{ "type": "Feature", "properties": { "county": "Hancock", "state": "Iowa", "fips": "19081", "cases": 1171, "deaths": 24 }, "geometry": { "type": "Point", "coordinates": [ -93.7345488, 43.0817848 ] } }
{ "type": "Feature", "properties": { "county": "Spencer", "state": "Kentucky", "fips": "21215", "cases": 987, "deaths": 5 }, "geometry": { "type": "Point", "coordinates": [ -85.327515, 38.032241 ] } }
{ "type": "Feature", "properties": { "county": "Lapeer", "state": "Michigan", "fips": "26087", "cases": 4334, "deaths": 108 }, "geometry": { "type": "Point", "coordinates": [ -83.2215315, 43.0905251 ] } }
{ "type": "Feature", "properties": { "county": "Benton", "state": "Minnesota", "fips": "27009", "cases": 3874, "deaths": 77 }, "geometry": { "type": "Point", "coordinates": [ -93.9951414, 45.6980496 ] } }
{ "type": "Feature", "properties": { "county": "Beltrami", "state": "Minnesota", "fips": "27007", "cases": 2861, "deaths": 39 }, "geometry": { "type": "Point", "coordinates": [ -94.9373214, 47.9737353 ] } }
{ "type": "Feature", "properties": { "county": "Pontotoc", "state": "Mississippi", "fips": "28115", "cases": 3133, "deaths": 41 }, "geometry": { "type": "Point", "coordinates": [ -89.0363681, 34.226046 ] } }
{ "type": "Feature", "properties": { "county": "Lamar", "state": "Alabama", "fips": "01075", "cases": 1037, "deaths": 15 }, "geometry": { "type": "Point", "coordinates": [ -88.0966803, 33.7799502 ] } }
{ "type": "Feature", "properties": { "county": "Indian River", "state": "Florida", "fips": "12061", "cases": 6757, "deaths": 158 }, "geometry": { "type": "Point", "coordinates": [ -80.6055672, 27.6930896 ] } }
{ "type": "Feature", "properties": { "county": "Leon", "state": "Florida", "fips": "12073", "cases": 19290, "deaths": 173 }, "geometry": { "type": "Point", "coordinates": [ -84.2749112, 30.4595578 ] } }
{ "type": "Feature", "properties": { "county": "St. Joseph", "state": "Michigan", "fips": "26149", "cases": 3584, "deaths": 50 }, "geometry": { "type": "Point", "coordinates": [ -85.5279798, 41.9144177 ] } }
{ "type": "Feature", "properties": { "county": "Cheboygan", "state": "Michigan", "fips": "26031", "cases": 737, "deaths": 33 }, "geometry": { "type": "Point", "coordinates": [ -84.5012215, 45.4478701 ] } }
{ "type": "Feature", "properties": { "county": "Sioux", "state": "Nebraska", "fips": "31165", "cases": 26, "deaths": 0 }, "geometry": { "type": "Point", "coordinates": [ -103.7576544, 42.4893206 ] } }
{ "type": "Feature", "properties": { "county": "Fulton", "state": "Ohio", "fips": "39051", "cases": 2711, "deaths": 38 }, "geometry": { "type": "Point", "coordinates": [ -84.1257139, 41.6021349 ] } }
{ "type": "Feature", "properties": { "county": "Anson", "state": "North Carolina", "fips": "37007", "cases": 1402, "deaths": 26 }, "geometry": { "type": "Point", "coordinates": [ -80.0995328, 34.9740324 ] } }
{ "type": "Feature", "properties": { "county": "Warren", "state": "North Carolina", "fips": "37185", "cases": 1080, "deaths": 9 }, "geometry": { "type": "Point", "coordinates": [ -78.1065223, 36.3972826 ] } }
{ "type": "Feature", "properties": { "county": "Jefferson", "state": "Alabama", "fips": "01073", "cases": 51676, "deaths": 694 }, "geometry": { "type": "Point", "coordinates": [ -86.8964293, 33.5553784 ] } }
{ "type": "Feature", "properties": { "county": "Gilpin", "state": "Colorado", "fips": "08047", "cases": 122, "deaths": 1 }, "geometry": { "type": "Point", "coordinates": [ -105.5252597, 39.8564652 ] } }
{ "type": "Feature", "properties": { "county": "DeKalb", "state": "Georgia", "fips": "13089", "cases": 37777, "deaths": 527 }, "geometry": { "type": "Point", "coordinates": [ -84.2239855, 33.7694731 ] } }
{ "type": "Feature", "properties": { "county": "Kendall", "state": "Illinois", "fips": "17093", "cases": 8634, "deaths": 73 }, "geometry": { "type": "Point", "coordinates": [ -88.4286958, 41.5908102 ] } }
{ "type": "Feature", "properties": { "county": "Buchanan", "state": "Iowa", "fips": "19019", "cases": 1439, "deaths": 16 }, "geometry": { "type": "Point", "coordinates": [ -91.8351083, 42.4709188 ] } }
{ "type": "Feature", "properties": { "county": "Kalkaska", "state": "Michigan", "fips": "26079", "cases": 492, "deaths": 12 }, "geometry": { "type": "Point", "coordinates": [ -85.0900759, 44.6830597 ] } }
{ "type": "Feature", "properties": { "county": "Morrison", "state": "Minnesota", "fips": "27097", "cases": 2902, "deaths": 43 }, "geometry": { "type": "Point", "coordinates": [ -94.2734153, 46.0126536 ] } }
{ "type": "Feature", "properties": { "county": "Lawrence", "state": "Alabama", "fips": "01079", "cases": 2005, "deaths": 42 }, "geometry": { "type": "Point", "coordinates": [ -87.3107041, 34.520399 ] } }
{ "type": "Feature", "properties": { "county": "Hot Spring", "state": "Arkansas", "fips": "05059", "cases": 3615, "deaths": 55 }, "geometry": { "type": "Point", "coordinates": [ -92.9484585, 34.3176209 ] } }
{ "type": "Feature", "properties": { "county": "De Baca", "state": "New Mexico", "fips": "35011", "cases": 92, "deaths": 0 }, "geometry": { "type": "Point", "coordinates": [ -104.4117842, 34.3427453 ] } }
{ "type": "Feature", "properties": { "county": "Brown", "state": "Illinois", "fips": "17009", "cases": 450, "deaths": 11 }, "geometry": { "type": "Point", "coordinates": [ -90.7506854, 39.9620669 ] } }
{ "type": "Feature", "properties": { "county": "Reno", "state": "Kansas", "fips": "20155", "cases": 6938, "deaths": 101 }, "geometry": { "type": "Point", "coordinates": [ -98.0848537, 37.9510805 ] } }
{ "type": "Feature", "properties": { "county": "Saline", "state": "Nebraska", "fips": "31151", "cases": 1735, "deaths": 3 }, "geometry": { "type": "Point", "coordinates": [ -97.1408505, 40.5241844 ] } }
{ "type": "Feature", "properties": { "county": "Callaway", "state": "Missouri", "fips": "29027", "cases": 3745, "deaths": 20 }, "geometry": { "type": "Point", "coordinates": [ -91.921865, 38.8367475 ] } }
{ "type": "Feature", "properties": { "county": "Seneca", "state": "New York", "fips": "36099", "cases": 761, "deaths": 34 }, "geometry": { "type": "Point", "coordinates": [ -76.824757, 42.7808925 ] } }
{ "type": "Feature", "properties": { "county": "Choctaw", "state": "Mississippi", "fips": "28019", "cases": 506, "deaths": 10 }, "geometry": { "type": "Point", "coordinates": [ -89.2480938, 33.3459824 ] } }
{ "type": "Feature", "properties": { "county": "Blaine", "state": "Oklahoma", "fips": "40011", "cases": 647, "deaths": 3 }, "geometry": { "type": "Point", "coordinates": [ -98.4330638, 35.8751942 ] } }
{ "type": "Feature", "properties": { "county": "Potter", "state": "Texas", "fips": "48375", "cases": 15129, "deaths": 304 }, "geometry": { "type": "Point", "coordinates": [ -101.893964, 35.4013377 ] } }
{ "type": "Feature", "properties": { "county": "Trinity", "state": "Texas", "fips": "48455", "cases": 336, "deaths": 9 }, "geometry": { "type": "Point", "coordinates": [ -95.1367187, 31.0879489 ] } }
{ "type": "Feature", "properties": { "county": "Rusk", "state": "Wisconsin", "fips": "55107", "cases": 1133, "deaths": 13 }, "geometry": { "type": "Point", "coordinates": [ -91.1333012, 45.4749885 ] } }
{ "type": "Feature", "properties": { "county": "Wahkiakum", "state": "Washington", "fips": "53069", "cases": 48, "deaths": 0 }, "geometry": { "type": "Point", "coordinates": [ -123.4250831, 46.2918004 ] } }
{ "type": "Feature", "properties": { "county": "Crane", "state": "Texas", "fips": "48103", "cases": 503, "deaths": 9 }, "geometry": { "type": "Point", "coordinates": [ -102.5143314, 31.4305225 ] } }
{ "type": "Feature", "properties": { "county": "Marshall", "state": "Tennessee", "fips": "47117", "cases": 2821, "deaths": 30 }, "geometry": { "type": "Point", "coordinates": [ -86.7642099, 35.4579878 ] } }
{ "type": "Feature", "properties": { "county": "Randall", "state": "Texas", "fips": "48381", "cases": 13919, "deaths": 185 }, "geometry": { "type": "Point", "coordinates": [ -101.8971322, 34.96586 ] } }
{ "type": "Feature", "properties": { "county": "Lavaca", "state": "Texas", "fips": "48285", "cases": 1684, "deaths": 53 }, "geometry": { "type": "Point", "coordinates": [ -96.9318669, 29.385084 ] } }
{ "type": "Feature", "properties": { "county": "Jasper", "state": "Missouri", "fips": "29097", "cases": 5953, "deaths": 84 }, "geometry": { "type": "Point", "coordinates": [ -94.3405046, 37.2035192 ] } }
{ "type": "Feature", "properties": { "county": "Warren", "state": "Illinois", "fips": "17187", "cases": 1480, "deaths": 36 }, "geometry": { "type": "Point", "coordinates": [ -90.6147429, 40.8492501 ] } }
{ "type": "Feature", "properties": { "county": "Montgomery", "state": "Indiana", "fips": "18107", "cases": 2797, "deaths": 48 }, "geometry": { "type": "Point", "coordinates": [ -86.8933502, 40.0403482 ] } }
{ "type": "Feature", "properties": { "county": "Lee", "state": "Mississippi", "fips": "28081", "cases": 7566, "deaths": 118 }, "geometry": { "type": "Point", "coordinates": [ -88.6814995, 34.2918775 ] } }
{ "type": "Feature", "properties": { "county": "Lowndes", "state": "Mississippi", "fips": "28087", "cases": 4311, "deaths": 92 }, "geometry": { "type": "Point", "coordinates": [ -88.4445878, 33.4751138 ] } }
{ "type": "Feature", "properties": { "county": "Montgomery", "state": "Ohio", "fips": "39113", "cases": 35213, "deaths": 353 }, "geometry": { "type": "Point", "coordinates": [ -84.2904827, 39.7539698 ] } }
{ "type": "Feature", "properties": { "county": "Phelps", "state": "Nebraska", "fips": "31137", "cases": 739, "deaths": 8 }, "geometry": { "type": "Point", "coordinates": [ -99.4146511, 40.5115114 ] } }
{ "type": "Feature", "properties": { "county": "Union", "state": "Illinois", "fips": "17181", "cases": 1663, "deaths": 31 }, "geometry": { "type": "Point", "coordinates": [ -89.2554894, 37.4711961 ] } }
{ "type": "Feature", "properties": { "county": "Chambers", "state": "Alabama", "fips": "01017", "cases": 2310, "deaths": 62 }, "geometry": { "type": "Point", "coordinates": [ -85.3907276, 32.9136003 ] } }
{ "type": "Feature", "properties": { "county": "Columbia", "state": "Georgia", "fips": "13073", "cases": 9698, "deaths": 98 }, "geometry": { "type": "Point", "coordinates": [ -82.263524, 33.5453418 ] } }
{ "type": "Feature", "properties": { "county": "Jersey", "state": "Illinois", "fips": "17083", "cases": 1965, "deaths": 40 }, "geometry": { "type": "Point", "coordinates": [ -90.3539307, 39.0886905 ] } }
{ "type": "Feature", "properties": { "county": "Sanilac", "state": "Michigan", "fips": "26151", "cases": 1497, "deaths": 57 }, "geometry": { "type": "Point", "coordinates": [ -82.820559, 43.4240607 ] } }
{ "type": "Feature", "properties": { "county": "Cape Girardeau", "state": "Missouri", "fips": "29031", "cases": 7688, "deaths": 109 }, "geometry": { "type": "Point", "coordinates": [ -89.6847817, 37.3880466 ] } }
{ "type": "Feature", "properties": { "county": "Dare", "state": "North Carolina", "fips": "37055", "cases": 996, "deaths": 5 }, "geometry": { "type": "Point", "coordinates": [ -75.7184462, 35.6711578 ] } }
{ "type": "Feature", "properties": { "county": "Polk", "state": "Tennessee", "fips": "47139", "cases": 1156, "deaths": 16 }, "geometry": { "type": "Point", "coordinates": [ -84.5207183, 35.1224636 ] } }
{ "type": "Feature", "properties": { "county": "Livingston", "state": "Louisiana", "fips": "22063", "cases": 8681, "deaths": 123 }, "geometry": { "type": "Point", "coordinates": [ -90.7286385, 30.4418994 ] } }
{ "type": "Feature", "properties": { "county": "Fleming", "state": "Kentucky", "fips": "21069", "cases": 711, "deaths": 2 }, "geometry": { "type": "Point", "coordinates": [ -83.6965705, 38.367538 ] } }
{ "type": "Feature", "properties": { "county": "Livingston", "state": "Missouri", "fips": "29117", "cases": 1028, "deaths": 22 }, "geometry": { "type": "Point", "coordinates": [ -93.5464598, 39.7811027 ] } }
{ "type": "Feature", "properties": { "county": "Hickory", "state": "Missouri", "fips": "29085", "cases": 425, "deaths": 9 }, "geometry": { "type": "Point", "coordinates": [ -93.3203316, 37.9416195 ] } }
{ "type": "Feature", "properties": { "county": "Wood", "state": "Ohio", "fips": "39173", "cases": 8183, "deaths": 145 }, "geometry": { "type": "Point", "coordinates": [ -83.622836, 41.3622777 ] } }
{ "type": "Feature", "properties": { "county": "Okfuskee", "state": "Oklahoma", "fips": "40107", "cases": 1395, "deaths": 15 }, "geometry": { "type": "Point", "coordinates": [ -96.3263998, 35.464852 ] } }
{ "type": "Feature", "properties": { "county": "Winchester city", "state": "Virginia", "fips": "51840", "cases": 1637, "deaths": 8 }, "geometry": { "type": "Point", "coordinates": [ -78.1733344, 39.1714465 ] } }
{ "type": "Feature", "properties": { "county": "Taylor", "state": "Texas", "fips": "48441", "cases": 10923, "deaths": 194 }, "geometry": { "type": "Point", "coordinates": [ -99.8900745, 32.3016342 ] } }
{ "type": "Feature", "properties": { "county": "Tyler", "state": "West Virginia", "fips": "54095", "cases": 353, "deaths": 2 }, "geometry": { "type": "Point", "coordinates": [ -80.8877268, 39.4681197 ] } }
{ "type": "Feature", "properties": { "county": "Calumet", "state": "Wisconsin", "fips": "55015", "cases": 4980, "deaths": 37 }, "geometry": { "type": "Point", "coordinates": [ -88.2178027, 44.0816316 ] } }
{ "type": "Feature", "properties": { "county": "Polk", "state": "Nebraska", "fips": "31143", "cases": 342, "deaths": 9 }, "geometry": { "type": "Point", "coordinates": [ -97.5663071, 41.1881349 ] } }
{ "type": "Feature", "properties": { "county": "Scotts Bluff", "state": "Nebraska", "fips": "31157", "cases": 4101, "deaths": 50 }, "geometry": { "type": "Point", "coordinates": [ -103.7080986, 41.850709 ] } }
{ "type": "Feature", "properties": { "county": "Boone", "state": "Arkansas", "fips": "05009", "cases": 2547, "deaths": 68 }, "geometry": { "type": "Point", "coordinates": [ -93.0937375, 36.3089029 ] } }
{ "type": "Feature", "properties": { "county": "Pinellas", "state": "Florida", "fips": "12103", "cases": 44243, "deaths": 1045 }, "geometry": { "type": "Point", "coordinates": [ -82.7223967, 27.9313035 ] } }
{ "type": "Feature", "properties": { "county": "Teton", "state": "Idaho", "fips": "16081", "cases": 709, "deaths": 2 }, "geometry": { "type": "Point", "coordinates": [ -111.2056773, 43.7530358 ] } }
{ "type": "Feature", "properties": { "county": "Morton", "state": "Kansas", "fips": "20129", "cases": 201, "deaths": 8 }, "geometry": { "type": "Point", "coordinates": [ -101.7992519, 37.1914112 ] } }
{ "type": "Feature", "properties": { "county": "Hillsdale", "state": "Michigan", "fips": "26059", "cases": 2588, "deaths": 57 }, "geometry": { "type": "Point", "coordinates": [ -84.5931202, 41.8875364 ] } }
{ "type": "Feature", "properties": { "county": "Steuben", "state": "New York", "fips": "36101", "cases": 3323, "deaths": 120 }, "geometry": { "type": "Point", "coordinates": [ -77.3829924, 42.2689144 ] } }
{ "type": "Feature", "properties": { "county": "Knox", "state": "Ohio", "fips": "39083", "cases": 2720, "deaths": 22 }, "geometry": { "type": "Point", "coordinates": [ -82.4228964, 40.3958937 ] } }
{ "type": "Feature", "properties": { "county": "Nowata", "state": "Oklahoma", "fips": "40105", "cases": 672, "deaths": 8 }, "geometry": { "type": "Point", "coordinates": [ -95.6190233, 36.7984353 ] } }
{ "type": "Feature", "properties": { "county": "Wayne", "state": "Tennessee", "fips": "47181", "cases": 2401, "deaths": 17 }, "geometry": { "type": "Point", "coordinates": [ -87.7833912, 35.2376519 ] } }
{ "type": "Feature", "properties": { "county": "Morgan", "state": "West Virginia", "fips": "54065", "cases": 637, "deaths": 8 }, "geometry": { "type": "Point", "coordinates": [ -78.2631413, 39.5543577 ] } }
{ "type": "Feature", "properties": { "county": "Cobb", "state": "Georgia", "fips": "13067", "cases": 43541, "deaths": 571 }, "geometry": { "type": "Point", "coordinates": [ -84.5761332, 33.9424033 ] } }
{ "type": "Feature", "properties": { "county": "Wayne", "state": "Georgia", "fips": "13305", "cases": 2080, "deaths": 49 }, "geometry": { "type": "Point", "coordinates": [ -81.9189488, 31.5521809 ] } }
{ "type": "Feature", "properties": { "county": "Marshall", "state": "Illinois", "fips": "17123", "cases": 571, "deaths": 9 }, "geometry": { "type": "Point", "coordinates": [ -89.3451733, 41.0328472 ] } }
{ "type": "Feature", "properties": { "county": "Decatur", "state": "Indiana", "fips": "18031", "cases": 2123, "deaths": 76 }, "geometry": { "type": "Point", "coordinates": [ -85.5008717, 39.3071266 ] } }
{ "type": "Feature", "properties": { "county": "Butler", "state": "Iowa", "fips": "19023", "cases": 1267, "deaths": 21 }, "geometry": { "type": "Point", "coordinates": [ -92.7901597, 42.7317283 ] } }
{ "type": "Feature", "properties": { "county": "Greenwood", "state": "Kansas", "fips": "20073", "cases": 452, "deaths": 2 }, "geometry": { "type": "Point", "coordinates": [ -96.2325045, 37.8774388 ] } }
{ "type": "Feature", "properties": { "county": "Wayne", "state": "Ohio", "fips": "39169", "cases": 5752, "deaths": 146 }, "geometry": { "type": "Point", "coordinates": [ -81.8884483, 40.8292585 ] } }
{ "type": "Feature", "properties": { "county": "Woodward", "state": "Oklahoma", "fips": "40153", "cases": 2457, "deaths": 10 }, "geometry": { "type": "Point", "coordinates": [ -99.2628304, 36.4231632 ] } }
{ "type": "Feature", "properties": { "county": "Clark", "state": "South Dakota", "fips": "46025", "cases": 312, "deaths": 2 }, "geometry": { "type": "Point", "coordinates": [ -97.7292511, 44.8583451 ] } }
{ "type": "Feature", "properties": { "county": "Trousdale", "state": "Tennessee", "fips": "47169", "cases": 2154, "deaths": 12 }, "geometry": { "type": "Point", "coordinates": [ -86.1608795, 36.3902621 ] } }
{ "type": "Feature", "properties": { "county": "Bee", "state": "Texas", "fips": "48025", "cases": 2649, "deaths": 45 }, "geometry": { "type": "Point", "coordinates": [ -97.7421559, 28.4176167 ] } }
{ "type": "Feature", "properties": { "county": "Fisher", "state": "Texas", "fips": "48151", "cases": 218, "deaths": 9 }, "geometry": { "type": "Point", "coordinates": [ -100.4019302, 32.7428132 ] } }
{ "type": "Feature", "properties": { "county": "Angelina", "state": "Texas", "fips": "48005", "cases": 5489, "deaths": 140 }, "geometry": { "type": "Point", "coordinates": [ -94.6096725, 31.2549238 ] } }
{ "type": "Feature", "properties": { "county": "Sheridan", "state": "Wyoming", "fips": "56033", "cases": 2521, "deaths": 16 }, "geometry": { "type": "Point", "coordinates": [ -106.8823989, 44.7900783 ] } }
{ "type": "Feature", "properties": { "county": "Reagan", "state": "Texas", "fips": "48383", "cases": 368, "deaths": 6 }, "geometry": { "type": "Point", "coordinates": [ -101.5232659, 31.3660704 ] } }
{ "type": "Feature", "properties": { "county": "Richmond", "state": "Virginia", "fips": "51159", "cases": 809, "deaths": 5 }, "geometry": { "type": "Point", "coordinates": [ -76.7292063, 37.937575 ] } }
{ "type": "Feature", "properties": { "county": "Wirt", "state": "West Virginia", "fips": "54105", "cases": 216, "deaths": 1 }, "geometry": { "type": "Point", "coordinates": [ -81.3747393, 39.0277501 ] } }
{ "type": "Feature", "properties": { "county": "Platte", "state": "Wyoming", "fips": "56031", "cases": 434, "deaths": 8 }, "geometry": { "type": "Point", "coordinates": [ -104.9663012, 42.1330786 ] } }
{ "type": "Feature", "properties": { "county": "Freestone", "state": "Texas", "fips": "48161", "cases": 910, "deaths": 23 }, "geometry": { "type": "Point", "coordinates": [ -96.1507252, 31.7042279 ] } }
{ "type": "Feature", "properties": { "county": "Webster", "state": "Mississippi", "fips": "28155", "cases": 736, "deaths": 18 }, "geometry": { "type": "Point", "coordinates": [ -89.2839291, 33.6130049 ] } }
{ "type": "Feature", "properties": { "county": "Cheyenne", "state": "Kansas", "fips": "20023", "cases": 275, "deaths": 10 }, "geometry": { "type": "Point", "coordinates": [ -101.7318201, 39.7858098 ] } }
{ "type": "Feature", "properties": { "county": "Wayne", "state": "Nebraska", "fips": "31179", "cases": 872, "deaths": 6 }, "geometry": { "type": "Point", "coordinates": [ -97.1192696, 42.2093447 ] } }
{ "type": "Feature", "properties": { "county": "Lancaster", "state": "Nebraska", "fips": "31109", "cases": 22461, "deaths": 151 }, "geometry": { "type": "Point", "coordinates": [ -96.6877716, 40.7841605 ] } }
{ "type": "Feature", "properties": { "county": "Renville", "state": "North Dakota", "fips": "38075", "cases": 276, "deaths": 12 }, "geometry": { "type": "Point", "coordinates": [ -101.6603912, 48.7198253 ] } }
{ "type": "Feature", "properties": { "county": "Yuma", "state": "Colorado", "fips": "08125", "cases": 542, "deaths": 11 }, "geometry": { "type": "Point", "coordinates": [ -102.4258673, 40.0034684 ] } }
{ "type": "Feature", "properties": { "county": "Rice", "state": "Minnesota", "fips": "27131", "cases": 5478, "deaths": 55 }, "geometry": { "type": "Point", "coordinates": [ -93.2965872, 44.3543376 ] } }
{ "type": "Feature", "properties": { "county": "Musselshell", "state": "Montana", "fips": "30065", "cases": 264, "deaths": 7 }, "geometry": { "type": "Point", "coordinates": [ -108.3972084, 46.4965962 ] } }
{ "type": "Feature", "properties": { "county": "York", "state": "Nebraska", "fips": "31185", "cases": 1236, "deaths": 7 }, "geometry": { "type": "Point", "coordinates": [ -97.5971019, 40.8727262 ] } }
{ "type": "Feature", "properties": { "county": "Durham", "state": "North Carolina", "fips": "37063", "cases": 14942, "deaths": 144 }, "geometry": { "type": "Point", "coordinates": [ -78.8760736, 36.0364122 ] } }
{ "type": "Feature", "properties": { "county": "Bledsoe", "state": "Tennessee", "fips": "47007", "cases": 1559, "deaths": 9 }, "geometry": { "type": "Point", "coordinates": [ -85.2061197, 35.5994297 ] } }
{ "type": "Feature", "properties": { "county": "Moore", "state": "Texas", "fips": "48341", "cases": 2053, "deaths": 48 }, "geometry": { "type": "Point", "coordinates": [ -101.8930281, 35.8376924 ] } }
{ "type": "Feature", "properties": { "county": "Piute", "state": "Utah", "fips": "49031", "cases": 70, "deaths": 2 }, "geometry": { "type": "Point", "coordinates": [ -112.1249591, 38.3381525 ] } }
{ "type": "Feature", "properties": { "county": "Covington city", "state": "Virginia", "fips": "51580", "cases": 365, "deaths": 4 }, "geometry": { "type": "Point", "coordinates": [ -79.9857351, 37.7782069 ] } }
{ "type": "Feature", "properties": { "county": "Escambia", "state": "Alabama", "fips": "01053", "cases": 2637, "deaths": 34 }, "geometry": { "type": "Point", "coordinates": [ -87.1591869, 31.1256789 ] } }
{ "type": "Feature", "properties": { "county": "Jewell", "state": "Kansas", "fips": "20089", "cases": 193, "deaths": 3 }, "geometry": { "type": "Point", "coordinates": [ -98.2182066, 39.7847059 ] } }
{ "type": "Feature", "properties": { "county": "Minnehaha", "state": "South Dakota", "fips": "46099", "cases": 24896, "deaths": 262 }, "geometry": { "type": "Point", "coordinates": [ -96.791374, 43.6741317 ] } }
{ "type": "Feature", "properties": { "county": "Schuyler", "state": "New York", "fips": "36097", "cases": 515, "deaths": 10 }, "geometry": { "type": "Point", "coordinates": [ -76.8773299, 42.3918401 ] } }
{ "type": "Feature", "properties": { "county": "Bradford", "state": "Pennsylvania", "fips": "42015", "cases": 3021, "deaths": 55 }, "geometry": { "type": "Point", "coordinates": [ -76.5157082, 41.7886921 ] } }
{ "type": "Feature", "properties": { "county": "Franklin", "state": "Kansas", "fips": "20059", "cases": 1757, "deaths": 18 }, "geometry": { "type": "Point", "coordinates": [ -95.2864434, 38.5644382 ] } }
{ "type": "Feature", "properties": { "county": "Fayette", "state": "Georgia", "fips": "13113", "cases": 4726, "deaths": 75 }, "geometry": { "type": "Point", "coordinates": [ -84.4908764, 33.41358 ] } }
{ "type": "Feature", "properties": { "county": "Scott", "state": "Illinois", "fips": "17171", "cases": 325, "deaths": 1 }, "geometry": { "type": "Point", "coordinates": [ -90.4781443, 39.6429169 ] } }
{ "type": "Feature", "properties": { "county": "Cochise", "state": "Arizona", "fips": "04003", "cases": 7324, "deaths": 126 }, "geometry": { "type": "Point", "coordinates": [ -109.7517556, 31.8790229 ] } }
{ "type": "Feature", "properties": { "county": "Modoc", "state": "California", "fips": "06049", "cases": 232, "deaths": 1 }, "geometry": { "type": "Point", "coordinates": [ -120.7244817, 41.589656 ] } }
{ "type": "Feature", "properties": { "county": "Kankakee", "state": "Illinois", "fips": "17091", "cases": 10717, "deaths": 156 }, "geometry": { "type": "Point", "coordinates": [ -87.8619807, 41.1374568 ] } }
{ "type": "Feature", "properties": { "county": "Worth", "state": "Iowa", "fips": "19195", "cases": 516, "deaths": 3 }, "geometry": { "type": "Point", "coordinates": [ -93.260876, 43.3775077 ] } }
{ "type": "Feature", "properties": { "county": "Emmet", "state": "Iowa", "fips": "19063", "cases": 1006, "deaths": 24 }, "geometry": { "type": "Point", "coordinates": [ -94.6785894, 43.3778295 ] } }
{ "type": "Feature", "properties": { "county": "Gogebic", "state": "Michigan", "fips": "26053", "cases": 1002, "deaths": 38 }, "geometry": { "type": "Point", "coordinates": [ -89.6937719, 46.408627 ] } }
{ "type": "Feature", "properties": { "county": "Harper", "state": "Kansas", "fips": "20077", "cases": 427, "deaths": 15 }, "geometry": { "type": "Point", "coordinates": [ -98.0757838, 37.1917536 ] } }
{ "type": "Feature", "properties": { "county": "McNairy", "state": "Tennessee", "fips": "47109", "cases": 2033, "deaths": 38 }, "geometry": { "type": "Point", "coordinates": [ -88.5647812, 35.1746855 ] } }
{ "type": "Feature", "properties": { "county": "Allen", "state": "Ohio", "fips": "39003", "cases": 8186, "deaths": 110 }, "geometry": { "type": "Point", "coordinates": [ -84.1080234, 40.7728524 ] } }
{ "type": "Feature", "properties": { "county": "York", "state": "Virginia", "fips": "51199", "cases": 1452, "deaths": 12 }, "geometry": { "type": "Point", "coordinates": [ -76.5441305, 37.2437562 ] } }
{ "type": "Feature", "properties": { "county": "Evans", "state": "Georgia", "fips": "13109", "cases": 655, "deaths": 13 }, "geometry": { "type": "Point", "coordinates": [ -81.8870105, 32.1532884 ] } }
{ "type": "Feature", "properties": { "county": "Poinsett", "state": "Arkansas", "fips": "05111", "cases": 2386, "deaths": 61 }, "geometry": { "type": "Point", "coordinates": [ -90.6626871, 35.5743353 ] } }
{ "type": "Feature", "properties": { "county": "Lamar", "state": "Georgia", "fips": "13171", "cases": 1146, "deaths": 32 }, "geometry": { "type": "Point", "coordinates": [ -84.1426388, 33.0784165 ] } }
{ "type": "Feature", "properties": { "county": "Gilmer", "state": "Georgia", "fips": "13123", "cases": 1812, "deaths": 37 }, "geometry": { "type": "Point", "coordinates": [ -84.4549623, 34.6908954 ] } }
{ "type": "Feature", "properties": { "county": "Rush", "state": "Indiana", "fips": "18139", "cases": 1231, "deaths": 13 }, "geometry": { "type": "Point", "coordinates": [ -85.4655599, 39.6200229 ] } }
{ "type": "Feature", "properties": { "county": "Fayette", "state": "Kentucky", "fips": "21067", "cases": 23078, "deaths": 159 }, "geometry": { "type": "Point", "coordinates": [ -84.4593136, 38.0378066 ] } }
{ "type": "Feature", "properties": { "county": "Clark", "state": "Kentucky", "fips": "21049", "cases": 1452, "deaths": 15 }, "geometry": { "type": "Point", "coordinates": [ -84.1503377, 37.9696136 ] } }
{ "type": "Feature", "properties": { "county": "Genesee", "state": "Michigan", "fips": "26049", "cases": 21619, "deaths": 596 }, "geometry": { "type": "Point", "coordinates": [ -83.7058971, 43.0224422 ] } }
{ "type": "Feature", "properties": { "county": "Bertie", "state": "North Carolina", "fips": "37015", "cases": 1187, "deaths": 27 }, "geometry": { "type": "Point", "coordinates": [ -76.9654594, 36.0688473 ] } }
{ "type": "Feature", "properties": { "county": "Todd", "state": "South Dakota", "fips": "46121", "cases": 1151, "deaths": 19 }, "geometry": { "type": "Point", "coordinates": [ -100.7195503, 43.1933857 ] } }
{ "type": "Feature", "properties": { "county": "Outagamie", "state": "Wisconsin", "fips": "55087", "cases": 17397, "deaths": 160 }, "geometry": { "type": "Point", "coordinates": [ -88.4656502, 44.4157889 ] } }
{ "type": "Feature", "properties": { "county": "Monroe", "state": "Indiana", "fips": "18105", "cases": 7943, "deaths": 97 }, "geometry": { "type": "Point", "coordinates": [ -86.5241436, 39.1613 ] } }
{ "type": "Feature", "properties": { "county": "San Miguel", "state": "Colorado", "fips": "08113", "cases": 391, "deaths": 0 }, "geometry": { "type": "Point", "coordinates": [ -108.4063527, 38.0021389 ] } }
{ "type": "Feature", "properties": { "county": "Carroll", "state": "Iowa", "fips": "19027", "cases": 2360, "deaths": 27 }, "geometry": { "type": "Point", "coordinates": [ -94.8603271, 42.0361721 ] } }
{ "type": "Feature", "properties": { "county": "Tishomingo", "state": "Mississippi", "fips": "28141", "cases": 1562, "deaths": 52 }, "geometry": { "type": "Point", "coordinates": [ -88.2391722, 34.7402348 ] } }
{ "type": "Feature", "properties": { "county": "Toombs", "state": "Georgia", "fips": "13279", "cases": 2286, "deaths": 70 }, "geometry": { "type": "Point", "coordinates": [ -82.3295725, 32.1205986 ] } }
{ "type": "Feature", "properties": { "county": "Lake", "state": "Ohio", "fips": "39085", "cases": 12569, "deaths": 120 }, "geometry": { "type": "Point", "coordinates": [ -81.2367654, 41.6971081 ] } }
{ "type": "Feature", "properties": { "county": "Green", "state": "Kentucky", "fips": "21087", "cases": 811, "deaths": 12 }, "geometry": { "type": "Point", "coordinates": [ -85.5540745, 37.2648433 ] } }
{ "type": "Feature", "properties": { "county": "Clay", "state": "Nebraska", "fips": "31035", "cases": 548, "deaths": 7 }, "geometry": { "type": "Point", "coordinates": [ -98.051263, 40.5243944 ] } }
{ "type": "Feature", "properties": { "county": "Greenlee", "state": "Arizona", "fips": "04011", "cases": 392, "deaths": 3 }, "geometry": { "type": "Point", "coordinates": [ -109.240528, 33.2149884 ] } }
{ "type": "Feature", "properties": { "county": "Boyd", "state": "Kentucky", "fips": "21019", "cases": 3003, "deaths": 31 }, "geometry": { "type": "Point", "coordinates": [ -82.6865219, 38.3617661 ] } }
{ "type": "Feature", "properties": { "county": "Bourbon", "state": "Kansas", "fips": "20011", "cases": 927, "deaths": 3 }, "geometry": { "type": "Point", "coordinates": [ -94.84866, 37.8550856 ] } }
{ "type": "Feature", "properties": { "county": "Chemung", "state": "New York", "fips": "36015", "cases": 4448, "deaths": 96 }, "geometry": { "type": "Point", "coordinates": [ -76.7638805, 42.1389106 ] } }
{ "type": "Feature", "properties": { "county": "Adair", "state": "Oklahoma", "fips": "40001", "cases": 1820, "deaths": 14 }, "geometry": { "type": "Point", "coordinates": [ -94.6585927, 35.8849419 ] } }
{ "type": "Feature", "properties": { "county": "Hansford", "state": "Texas", "fips": "48195", "cases": 588, "deaths": 13 }, "geometry": { "type": "Point", "coordinates": [ -101.3545796, 36.2774328 ] } }
{ "type": "Feature", "properties": { "county": "Sussex", "state": "Virginia", "fips": "51183", "cases": 706, "deaths": 13 }, "geometry": { "type": "Point", "coordinates": [ -77.2578847, 36.9243483 ] } }
{ "type": "Feature", "properties": { "county": "Harding", "state": "South Dakota", "fips": "46063", "cases": 89, "deaths": 1 }, "geometry": { "type": "Point", "coordinates": [ -103.4958629, 45.5801555 ] } }
{ "type": "Feature", "properties": { "county": "Yancey", "state": "North Carolina", "fips": "37199", "cases": 1020, "deaths": 6 }, "geometry": { "type": "Point", "coordinates": [ -82.3123582, 35.9007971 ] } }
{ "type": "Feature", "properties": { "county": "Hancock", "state": "Mississippi", "fips": "28045", "cases": 1981, "deaths": 54 }, "geometry": { "type": "Point", "coordinates": [ -89.4885103, 30.4183022 ] } }
{ "type": "Feature", "properties": { "county": "Izard", "state": "Arkansas", "fips": "05065", "cases": 1271, "deaths": 12 }, "geometry": { "type": "Point", "coordinates": [ -91.9084795, 36.0960405 ] } }
{ "type": "Feature", "properties": { "county": "Tippecanoe", "state": "Indiana", "fips": "18157", "cases": 14796, "deaths": 84 }, "geometry": { "type": "Point", "coordinates": [ -86.8941396, 40.3887274 ] } }
{ "type": "Feature", "properties": { "county": "Boone", "state": "Indiana", "fips": "18011", "cases": 4391, "deaths": 63 }, "geometry": { "type": "Point", "coordinates": [ -86.4684165, 40.0509304 ] } }
{ "type": "Feature", "properties": { "county": "Madison", "state": "Iowa", "fips": "19121", "cases": 963, "deaths": 8 }, "geometry": { "type": "Point", "coordinates": [ -94.0157822, 41.3311731 ] } }
{ "type": "Feature", "properties": { "county": "Taylor", "state": "Kentucky", "fips": "21217", "cases": 1747, "deaths": 21 }, "geometry": { "type": "Point", "coordinates": [ -85.3330166, 37.3677693 ] } }
{ "type": "Feature", "properties": { "county": "Saline", "state": "Kansas", "fips": "20169", "cases": 4436, "deaths": 58 }, "geometry": { "type": "Point", "coordinates": [ -97.6518518, 38.7836918 ] } }
{ "type": "Feature", "properties": { "county": "Barry", "state": "Michigan", "fips": "26015", "cases": 2968, "deaths": 34 }, "geometry": { "type": "Point", "coordinates": [ -85.3083452, 42.5951398 ] } }
{ "type": "Feature", "properties": { "county": "Waseca", "state": "Minnesota", "fips": "27161", "cases": 1747, "deaths": 12 }, "geometry": { "type": "Point", "coordinates": [ -93.5872003, 44.0221112 ] } }
{ "type": "Feature", "properties": { "county": "Blue Earth", "state": "Minnesota", "fips": "27013", "cases": 5026, "deaths": 28 }, "geometry": { "type": "Point", "coordinates": [ -94.0669978, 44.0355422 ] } }
{ "type": "Feature", "properties": { "county": "Davidson", "state": "North Carolina", "fips": "37057", "cases": 8567, "deaths": 85 }, "geometry": { "type": "Point", "coordinates": [ -80.2125657, 35.791155 ] } }
{ "type": "Feature", "properties": { "county": "Ross", "state": "Ohio", "fips": "39141", "cases": 4351, "deaths": 84 }, "geometry": { "type": "Point", "coordinates": [ -83.0600091, 39.3370539 ] } }
{ "type": "Feature", "properties": { "county": "Van Buren", "state": "Tennessee", "fips": "47175", "cases": 541, "deaths": 6 }, "geometry": { "type": "Point", "coordinates": [ -85.4521484, 35.6985236 ] } }
{ "type": "Feature", "properties": { "county": "Falls", "state": "Texas", "fips": "48145", "cases": 1177, "deaths": 16 }, "geometry": { "type": "Point", "coordinates": [ -96.9363009, 31.2535061 ] } }
{ "type": "Feature", "properties": { "county": "Lynn", "state": "Texas", "fips": "48305", "cases": 505, "deaths": 12 }, "geometry": { "type": "Point", "coordinates": [ -101.8162849, 33.1765771 ] } }
{ "type": "Feature", "properties": { "county": "Deaf Smith", "state": "Texas", "fips": "48117", "cases": 2395, "deaths": 55 }, "geometry": { "type": "Point", "coordinates": [ -102.6054267, 34.9652296 ] } }
{ "type": "Feature", "properties": { "county": "Converse", "state": "Wyoming", "fips": "56009", "cases": 796, "deaths": 11 }, "geometry": { "type": "Point", "coordinates": [ -105.5081489, 42.9729961 ] } }
{ "type": "Feature", "properties": { "county": "Gloucester", "state": "Virginia", "fips": "51073", "cases": 846, "deaths": 7 }, "geometry": { "type": "Point", "coordinates": [ -76.5352434, 37.4080904 ] } }
{ "type": "Feature", "properties": { "county": "Kimble", "state": "Texas", "fips": "48267", "cases": 205, "deaths": 6 }, "geometry": { "type": "Point", "coordinates": [ -99.7485647, 30.4867892 ] } }
{ "type": "Feature", "properties": { "county": "Lea", "state": "New Mexico", "fips": "35025", "cases": 6853, "deaths": 88 }, "geometry": { "type": "Point", "coordinates": [ -103.4135258, 32.7945071 ] } }
{ "type": "Feature", "properties": { "county": "Costilla", "state": "Colorado", "fips": "08023", "cases": 161, "deaths": 2 }, "geometry": { "type": "Point", "coordinates": [ -105.4276548, 37.2773249 ] } }
{ "type": "Feature", "properties": { "county": "Guthrie", "state": "Iowa", "fips": "19077", "cases": 945, "deaths": 22 }, "geometry": { "type": "Point", "coordinates": [ -94.5011101, 41.6837897 ] } }
{ "type": "Feature", "properties": { "county": "Smith", "state": "Mississippi", "fips": "28129", "cases": 1010, "deaths": 20 }, "geometry": { "type": "Point", "coordinates": [ -89.5064485, 32.0174453 ] } }
{ "type": "Feature", "properties": { "county": "Rush", "state": "Kansas", "fips": "20165", "cases": 343, "deaths": 0 }, "geometry": { "type": "Point", "coordinates": [ -99.3086398, 38.5227528 ] } }
{ "type": "Feature", "properties": { "county": "Kiowa", "state": "Kansas", "fips": "20097", "cases": 178, "deaths": 0 }, "geometry": { "type": "Point", "coordinates": [ -99.2856537, 37.558487 ] } }
{ "type": "Feature", "properties": { "county": "Vernon", "state": "Missouri", "fips": "29217", "cases": 966, "deaths": 17 }, "geometry": { "type": "Point", "coordinates": [ -94.3412731, 37.8457799 ] } }
{ "type": "Feature", "properties": { "county": "Granville", "state": "North Carolina", "fips": "37077", "cases": 3540, "deaths": 63 }, "geometry": { "type": "Point", "coordinates": [ -78.6518487, 36.303372 ] } }
{ "type": "Feature", "properties": { "county": "Greeley", "state": "Nebraska", "fips": "31077", "cases": 178, "deaths": 2 }, "geometry": { "type": "Point", "coordinates": [ -98.5215027, 41.5674267 ] } }
{ "type": "Feature", "properties": { "county": "Perry", "state": "Pennsylvania", "fips": "42099", "cases": 1698, "deaths": 33 }, "geometry": { "type": "Point", "coordinates": [ -77.2594494, 40.402223 ] } }
{ "type": "Feature", "properties": { "county": "Henderson", "state": "Illinois", "fips": "17071", "cases": 394, "deaths": 10 }, "geometry": { "type": "Point", "coordinates": [ -90.9249146, 40.8190867 ] } }
{ "type": "Feature", "properties": { "county": "Hood", "state": "Texas", "fips": "48221", "cases": 3825, "deaths": 69 }, "geometry": { "type": "Point", "coordinates": [ -97.8324202, 32.4299093 ] } }
{ "type": "Feature", "properties": { "county": "Johnson", "state": "Illinois", "fips": "17087", "cases": 968, "deaths": 15 }, "geometry": { "type": "Point", "coordinates": [ -88.8816542, 37.459398 ] } }
{ "type": "Feature", "properties": { "county": "Staunton city", "state": "Virginia", "fips": "51790", "cases": 1564, "deaths": 27 }, "geometry": { "type": "Point", "coordinates": [ -79.0611259, 38.1637841 ] } }
{ "type": "Feature", "properties": { "county": "Bureau", "state": "Illinois", "fips": "17011", "cases": 2789, "deaths": 70 }, "geometry": { "type": "Point", "coordinates": [ -89.528294, 41.4038241 ] } }
{ "type": "Feature", "properties": { "county": "Buena Vista", "state": "Iowa", "fips": "19021", "cases": 3697, "deaths": 25 }, "geometry": { "type": "Point", "coordinates": [ -95.1510016, 42.7354588 ] } }
{ "type": "Feature", "properties": { "county": "LaGrange", "state": "Indiana", "fips": "18087", "cases": 2023, "deaths": 56 }, "geometry": { "type": "Point", "coordinates": [ -85.4267423, 41.6423219 ] } }
{ "type": "Feature", "properties": { "county": "Wayne", "state": "Mississippi", "fips": "28153", "cases": 1652, "deaths": 27 }, "geometry": { "type": "Point", "coordinates": [ -88.6957391, 31.6413569 ] } }
{ "type": "Feature", "properties": { "county": "Monroe", "state": "Kentucky", "fips": "21171", "cases": 945, "deaths": 26 }, "geometry": { "type": "Point", "coordinates": [ -85.7159644, 36.7122534 ] } }
{ "type": "Feature", "properties": { "county": "Pima", "state": "Arizona", "fips": "04019", "cases": 68437, "deaths": 1039 }, "geometry": { "type": "Point", "coordinates": [ -111.7890033, 32.0971334 ] } }
{ "type": "Feature", "properties": { "county": "Grant", "state": "Oklahoma", "fips": "40053", "cases": 380, "deaths": 5 }, "geometry": { "type": "Point", "coordinates": [ -97.7863878, 36.7962957 ] } }
{ "type": "Feature", "properties": { "county": "Ochiltree", "state": "Texas", "fips": "48357", "cases": 888, "deaths": 16 }, "geometry": { "type": "Point", "coordinates": [ -100.8158184, 36.2782911 ] } }
{ "type": "Feature", "properties": { "county": "Harper", "state": "Oklahoma", "fips": "40059", "cases": 343, "deaths": 3 }, "geometry": { "type": "Point", "coordinates": [ -99.6679804, 36.7883652 ] } }
{ "type": "Feature", "properties": { "county": "Stephenson", "state": "Illinois", "fips": "17177", "cases": 3215, "deaths": 60 }, "geometry": { "type": "Point", "coordinates": [ -89.662598, 42.3512922 ] } }
{ "type": "Feature", "properties": { "county": "LaPorte", "state": "Indiana", "fips": "18091", "cases": 7423, "deaths": 137 }, "geometry": { "type": "Point", "coordinates": [ -86.7407219, 41.5436601 ] } }
{ "type": "Feature", "properties": { "county": "Onondaga", "state": "New York", "fips": "36067", "cases": 20658, "deaths": 420 }, "geometry": { "type": "Point", "coordinates": [ -76.1997115, 43.0049192 ] } }
{ "type": "Feature", "properties": { "county": "Gooding", "state": "Idaho", "fips": "16047", "cases": 1144, "deaths": 17 }, "geometry": { "type": "Point", "coordinates": [ -114.8107031, 42.9692003 ] } }
{ "type": "Feature", "properties": { "county": "Crittenden", "state": "Kentucky", "fips": "21055", "cases": 336, "deaths": 3 }, "geometry": { "type": "Point", "coordinates": [ -88.0882609, 37.3583924 ] } }
{ "type": "Feature", "properties": { "county": "Appanoose", "state": "Iowa", "fips": "19007", "cases": 966, "deaths": 35 }, "geometry": { "type": "Point", "coordinates": [ -92.8686591, 40.7432445 ] } }
{ "type": "Feature", "properties": { "county": "Elliott", "state": "Kentucky", "fips": "21063", "cases": 784, "deaths": 1 }, "geometry": { "type": "Point", "coordinates": [ -83.096931, 38.1158718 ] } }
{ "type": "Feature", "properties": { "county": "Caroline", "state": "Maryland", "fips": "24011", "cases": 1295, "deaths": 10 }, "geometry": { "type": "Point", "coordinates": [ -75.8290416, 38.8717229 ] } }
{ "type": "Feature", "properties": { "county": "De Soto", "state": "Louisiana", "fips": "22031", "cases": 1738, "deaths": 51 }, "geometry": { "type": "Point", "coordinates": [ -93.7413134, 32.0546047 ] } }
{ "type": "Feature", "properties": { "county": "Cecil", "state": "Maryland", "fips": "24015", "cases": 3537, "deaths": 74 }, "geometry": { "type": "Point", "coordinates": [ -75.9462806, 39.5665428 ] } }
{ "type": "Feature", "properties": { "county": "Menominee", "state": "Wisconsin", "fips": "55078", "cases": 712, "deaths": 10 }, "geometry": { "type": "Point", "coordinates": [ -88.7095815, 45.0042782 ] } }
{ "type": "Feature", "properties": { "county": "Wapello", "state": "Iowa", "fips": "19179", "cases": 3121, "deaths": 90 }, "geometry": { "type": "Point", "coordinates": [ -92.4095473, 41.0306498 ] } }
{ "type": "Feature", "properties": { "county": "Kootenai", "state": "Idaho", "fips": "16055", "cases": 12490, "deaths": 116 }, "geometry": { "type": "Point", "coordinates": [ -116.7020872, 47.6728226 ] } }
{ "type": "Feature", "properties": { "county": "Haywood", "state": "Tennessee", "fips": "47075", "cases": 2156, "deaths": 36 }, "geometry": { "type": "Point", "coordinates": [ -89.2853662, 35.5833282 ] } }
{ "type": "Feature", "properties": { "county": "Adams", "state": "Iowa", "fips": "19003", "cases": 262, "deaths": 2 }, "geometry": { "type": "Point", "coordinates": [ -94.6993264, 41.0290357 ] } }
{ "type": "Feature", "properties": { "county": "Putnam", "state": "Illinois", "fips": "17155", "cases": 319, "deaths": 0 }, "geometry": { "type": "Point", "coordinates": [ -89.2868192, 41.2013724 ] } }
{ "type": "Feature", "properties": { "county": "Schuyler", "state": "Illinois", "fips": "17169", "cases": 542, "deaths": 14 }, "geometry": { "type": "Point", "coordinates": [ -90.6110336, 40.1571575 ] } }
{ "type": "Feature", "properties": { "county": "Macon", "state": "Tennessee", "fips": "47111", "cases": 2565, "deaths": 44 }, "geometry": { "type": "Point", "coordinates": [ -86.0075093, 36.5315543 ] } }
{ "type": "Feature", "properties": { "county": "Cerro Gordo", "state": "Iowa", "fips": "19033", "cases": 4309, "deaths": 61 }, "geometry": { "type": "Point", "coordinates": [ -93.2612239, 43.0817756 ] } }
{ "type": "Feature", "properties": { "county": "Branch", "state": "Michigan", "fips": "26023", "cases": 3887, "deaths": 91 }, "geometry": { "type": "Point", "coordinates": [ -85.0592948, 41.9160056 ] } }
{ "type": "Feature", "properties": { "county": "Clay", "state": "Iowa", "fips": "19041", "cases": 1536, "deaths": 12 }, "geometry": { "type": "Point", "coordinates": [ -95.1509648, 43.0824718 ] } }
{ "type": "Feature", "properties": { "county": "Rowan", "state": "North Carolina", "fips": "37159", "cases": 8881, "deaths": 167 }, "geometry": { "type": "Point", "coordinates": [ -80.5244663, 35.6400392 ] } }
{ "type": "Feature", "properties": { "county": "Albany", "state": "Wyoming", "fips": "56001", "cases": 3460, "deaths": 9 }, "geometry": { "type": "Point", "coordinates": [ -105.7235132, 41.6549785 ] } }
{ "type": "Feature", "properties": { "county": "Boulder", "state": "Colorado", "fips": "08013", "cases": 14614, "deaths": 182 }, "geometry": { "type": "Point", "coordinates": [ -105.3546767, 40.0931362 ] } }
{ "type": "Feature", "properties": { "county": "Washington", "state": "Georgia", "fips": "13303", "cases": 1413, "deaths": 46 }, "geometry": { "type": "Point", "coordinates": [ -82.7935652, 32.9671237 ] } }
{ "type": "Feature", "properties": { "county": "Greene", "state": "Indiana", "fips": "18055", "cases": 1915, "deaths": 59 }, "geometry": { "type": "Point", "coordinates": [ -86.962232, 39.0363055 ] } }
{ "type": "Feature", "properties": { "county": "Logan", "state": "Kansas", "fips": "20109", "cases": 273, "deaths": 0 }, "geometry": { "type": "Point", "coordinates": [ -101.148475, 38.9173581 ] } }
{ "type": "Feature", "properties": { "county": "Caldwell", "state": "Kentucky", "fips": "21033", "cases": 869, "deaths": 15 }, "geometry": { "type": "Point", "coordinates": [ -87.8694822, 37.1474857 ] } }
{ "type": "Feature", "properties": { "county": "Otsego", "state": "Michigan", "fips": "26137", "cases": 1186, "deaths": 22 }, "geometry": { "type": "Point", "coordinates": [ -84.5989829, 45.0208583 ] } }
{ "type": "Feature", "properties": { "county": "Roscommon", "state": "Michigan", "fips": "26143", "cases": 963, "deaths": 27 }, "geometry": { "type": "Point", "coordinates": [ -84.6106765, 44.3347308 ] } }
{ "type": "Feature", "properties": { "county": "Sandoval", "state": "New Mexico", "fips": "35043", "cases": 8040, "deaths": 130 }, "geometry": { "type": "Point", "coordinates": [ -106.8687751, 35.6886129 ] } }
{ "type": "Feature", "properties": { "county": "Auglaize", "state": "Ohio", "fips": "39011", "cases": 3586, "deaths": 55 }, "geometry": { "type": "Point", "coordinates": [ -84.2242143, 40.5599886 ] } }
{ "type": "Feature", "properties": { "county": "Brule", "state": "South Dakota", "fips": "46015", "cases": 627, "deaths": 7 }, "geometry": { "type": "Point", "coordinates": [ -99.0811895, 43.7175638 ] } }
{ "type": "Feature", "properties": { "county": "Beadle", "state": "South Dakota", "fips": "46005", "cases": 2502, "deaths": 34 }, "geometry": { "type": "Point", "coordinates": [ -98.2785834, 44.4146606 ] } }
{ "type": "Feature", "properties": { "county": "Comal", "state": "Texas", "fips": "48091", "cases": 6168, "deaths": 158 }, "geometry": { "type": "Point", "coordinates": [ -98.2764722, 29.8081128 ] } }
{ "type": "Feature", "properties": { "county": "Roberts", "state": "Texas", "fips": "48393", "cases": 46, "deaths": 1 }, "geometry": { "type": "Point", "coordinates": [ -100.813175, 35.8380969 ] } }
{ "type": "Feature", "properties": { "county": "Boone", "state": "West Virginia", "fips": "54005", "cases": 1053, "deaths": 21 }, "geometry": { "type": "Point", "coordinates": [ -81.6988802, 38.0197419 ] } }
{ "type": "Feature", "properties": { "county": "Trimble", "state": "Kentucky", "fips": "21223", "cases": 373, "deaths": 0 }, "geometry": { "type": "Point", "coordinates": [ -85.3377597, 38.6105649 ] } }
{ "type": "Feature", "properties": { "county": "Grant", "state": "Minnesota", "fips": "27051", "cases": 386, "deaths": 7 }, "geometry": { "type": "Point", "coordinates": [ -96.0113961, 45.9342477 ] } }
{ "type": "Feature", "properties": { "county": "Franklin", "state": "Mississippi", "fips": "28037", "cases": 578, "deaths": 8 }, "geometry": { "type": "Point", "coordinates": [ -90.8977023, 31.4774031 ] } }
{ "type": "Feature", "properties": { "county": "Texas", "state": "Missouri", "fips": "29215", "cases": 1320, "deaths": 17 }, "geometry": { "type": "Point", "coordinates": [ -91.9655603, 37.3171562 ] } }
{ "type": "Feature", "properties": { "county": "Wolfe", "state": "Kentucky", "fips": "21237", "cases": 300, "deaths": 3 }, "geometry": { "type": "Point", "coordinates": [ -83.4930361, 37.7394163 ] } }
{ "type": "Feature", "properties": { "county": "Baylor", "state": "Texas", "fips": "48023", "cases": 202, "deaths": 7 }, "geometry": { "type": "Point", "coordinates": [ -99.2135551, 33.6164063 ] } }
{ "type": "Feature", "properties": { "county": "Hancock", "state": "Tennessee", "fips": "47067", "cases": 323, "deaths": 5 }, "geometry": { "type": "Point", "coordinates": [ -83.2237585, 36.5269287 ] } }
{ "type": "Feature", "properties": { "county": "Lawrence", "state": "South Dakota", "fips": "46081", "cases": 2541, "deaths": 28 }, "geometry": { "type": "Point", "coordinates": [ -103.7929428, 44.3591944 ] } }
{ "type": "Feature", "properties": { "county": "McCook", "state": "South Dakota", "fips": "46087", "cases": 683, "deaths": 21 }, "geometry": { "type": "Point", "coordinates": [ -97.3686314, 43.6742571 ] } }
{ "type": "Feature", "properties": { "county": "Jerauld", "state": "South Dakota", "fips": "46073", "cases": 259, "deaths": 15 }, "geometry": { "type": "Point", "coordinates": [ -98.6296129, 44.0663932 ] } }
{ "type": "Feature", "properties": { "county": "Clinton", "state": "Pennsylvania", "fips": "42035", "cases": 1897, "deaths": 24 }, "geometry": { "type": "Point", "coordinates": [ -77.6365649, 41.2328476 ] } }
{ "type": "Feature", "properties": { "county": "Goochland", "state": "Virginia", "fips": "51075", "cases": 607, "deaths": 7 }, "geometry": { "type": "Point", "coordinates": [ -77.903764, 37.7171409 ] } }
{ "type": "Feature", "properties": { "county": "Lewis", "state": "Tennessee", "fips": "47101", "cases": 1144, "deaths": 19 }, "geometry": { "type": "Point", "coordinates": [ -87.4903839, 35.5284959 ] } }
{ "type": "Feature", "properties": { "county": "Madison", "state": "Tennessee", "fips": "47113", "cases": 7966, "deaths": 151 }, "geometry": { "type": "Point", "coordinates": [ -88.8407604, 35.6118196 ] } }
{ "type": "Feature", "properties": { "county": "Karnes", "state": "Texas", "fips": "48255", "cases": 1272, "deaths": 21 }, "geometry": { "type": "Point", "coordinates": [ -97.8596015, 28.9070533 ] } }
{ "type": "Feature", "properties": { "county": "Lyon", "state": "Minnesota", "fips": "27083", "cases": 2815, "deaths": 29 }, "geometry": { "type": "Point", "coordinates": [ -95.838061, 44.4132786 ] } }
{ "type": "Feature", "properties": { "county": "Perry", "state": "Tennessee", "fips": "47135", "cases": 847, "deaths": 23 }, "geometry": { "type": "Point", "coordinates": [ -87.861509, 35.6371601 ] } }
{ "type": "Feature", "properties": { "county": "Robertson", "state": "Tennessee", "fips": "47147", "cases": 6473, "deaths": 73 }, "geometry": { "type": "Point", "coordinates": [ -86.8734672, 36.5245481 ] } }
{ "type": "Feature", "properties": { "county": "Sevier", "state": "Tennessee", "fips": "47155", "cases": 8818, "deaths": 70 }, "geometry": { "type": "Point", "coordinates": [ -83.5226223, 35.7810302 ] } }
{ "type": "Feature", "properties": { "county": "Portage", "state": "Wisconsin", "fips": "55097", "cases": 5880, "deaths": 54 }, "geometry": { "type": "Point", "coordinates": [ -89.5015621, 44.4755891 ] } }
{ "type": "Feature", "properties": { "county": "Price", "state": "Wisconsin", "fips": "55099", "cases": 1003, "deaths": 5 }, "geometry": { "type": "Point", "coordinates": [ -90.3609888, 45.6805175 ] } }
{ "type": "Feature", "properties": { "county": "Charlotte", "state": "Virginia", "fips": "51037", "cases": 376, "deaths": 6 }, "geometry": { "type": "Point", "coordinates": [ -78.6631409, 37.019097 ] } }
{ "type": "Feature", "properties": { "county": "Brooks", "state": "Texas", "fips": "48047", "cases": 593, "deaths": 27 }, "geometry": { "type": "Point", "coordinates": [ -98.218084, 27.031032 ] } }
{ "type": "Feature", "properties": { "county": "Dunn", "state": "Wisconsin", "fips": "55033", "cases": 3741, "deaths": 23 }, "geometry": { "type": "Point", "coordinates": [ -91.8962507, 44.9456272 ] } }
{ "type": "Feature", "properties": { "county": "Iroquois", "state": "Illinois", "fips": "17075", "cases": 2293, "deaths": 49 }, "geometry": { "type": "Point", "coordinates": [ -87.8246786, 40.7471385 ] } }
{ "type": "Feature", "properties": { "county": "Lincoln", "state": "Georgia", "fips": "13181", "cases": 424, "deaths": 11 }, "geometry": { "type": "Point", "coordinates": [ -82.4502413, 33.7920148 ] } }
{ "type": "Feature", "properties": { "county": "Harford", "state": "Maryland", "fips": "24025", "cases": 8479, "deaths": 158 }, "geometry": { "type": "Point", "coordinates": [ -76.3077579, 39.5501056 ] } }
{ "type": "Feature", "properties": { "county": "Jefferson", "state": "Nebraska", "fips": "31095", "cases": 546, "deaths": 1 }, "geometry": { "type": "Point", "coordinates": [ -97.142601, 40.1758453 ] } }
{ "type": "Feature", "properties": { "county": "Red Willow", "state": "Nebraska", "fips": "31145", "cases": 944, "deaths": 5 }, "geometry": { "type": "Point", "coordinates": [ -100.4769957, 40.1755683 ] } }
{ "type": "Feature", "properties": { "county": "Webster", "state": "Nebraska", "fips": "31181", "cases": 273, "deaths": 3 }, "geometry": { "type": "Point", "coordinates": [ -98.5001985, 40.1764264 ] } }
{ "type": "Feature", "properties": { "county": "Butler", "state": "Ohio", "fips": "39017", "cases": 25416, "deaths": 188 }, "geometry": { "type": "Point", "coordinates": [ -84.5738872, 39.4401284 ] } }
{ "type": "Feature", "properties": { "county": "Wayne", "state": "Illinois", "fips": "17191", "cases": 1319, "deaths": 41 }, "geometry": { "type": "Point", "coordinates": [ -88.4258617, 38.4294955 ] } }
{ "type": "Feature", "properties": { "county": "Keokuk", "state": "Iowa", "fips": "19107", "cases": 787, "deaths": 23 }, "geometry": { "type": "Point", "coordinates": [ -92.1785067, 41.3364983 ] } }
{ "type": "Feature", "properties": { "county": "Williamson", "state": "Illinois", "fips": "17199", "cases": 5234, "deaths": 106 }, "geometry": { "type": "Point", "coordinates": [ -88.9299403, 37.7303351 ] } }
{ "type": "Feature", "properties": { "county": "Hardee", "state": "Florida", "fips": "12049", "cases": 2084, "deaths": 20 }, "geometry": { "type": "Point", "coordinates": [ -81.8097059, 27.492937 ] } }
{ "type": "Feature", "properties": { "county": "Lumpkin", "state": "Georgia", "fips": "13187", "cases": 1898, "deaths": 23 }, "geometry": { "type": "Point", "coordinates": [ -84.0042578, 34.5728821 ] } }
{ "type": "Feature", "properties": { "county": "Glades", "state": "Florida", "fips": "12043", "cases": 769, "deaths": 11 }, "geometry": { "type": "Point", "coordinates": [ -81.1905156, 26.9556735 ] } }
{ "type": "Feature", "properties": { "county": "Long", "state": "Georgia", "fips": "13183", "cases": 493, "deaths": 5 }, "geometry": { "type": "Point", "coordinates": [ -81.7495237, 31.7521879 ] } }
{ "type": "Feature", "properties": { "county": "Madison", "state": "Georgia", "fips": "13195", "cases": 1810, "deaths": 23 }, "geometry": { "type": "Point", "coordinates": [ -83.2121758, 34.1292097 ] } }
{ "type": "Feature", "properties": { "county": "Wharton", "state": "Texas", "fips": "48481", "cases": 2414, "deaths": 74 }, "geometry": { "type": "Point", "coordinates": [ -96.2231945, 29.2776602 ] } }
{ "type": "Feature", "properties": { "county": "Oconee", "state": "Georgia", "fips": "13219", "cases": 2264, "deaths": 42 }, "geometry": { "type": "Point", "coordinates": [ -83.4368084, 33.8374126 ] } }
{ "type": "Feature", "properties": { "county": "Peach", "state": "Georgia", "fips": "13225", "cases": 1497, "deaths": 33 }, "geometry": { "type": "Point", "coordinates": [ -83.8294615, 32.5693332 ] } }
{ "type": "Feature", "properties": { "county": "Young", "state": "Texas", "fips": "48503", "cases": 1404, "deaths": 28 }, "geometry": { "type": "Point", "coordinates": [ -98.6879088, 33.1765971 ] } }
{ "type": "Feature", "properties": { "county": "Arlington", "state": "Virginia", "fips": "51013", "cases": 8786, "deaths": 181 }, "geometry": { "type": "Point", "coordinates": [ -77.1013989, 38.8767686 ] } }
{ "type": "Feature", "properties": { "county": "Natrona", "state": "Wyoming", "fips": "56025", "cases": 6443, "deaths": 88 }, "geometry": { "type": "Point", "coordinates": [ -106.7978479, 42.9615848 ] } }
{ "type": "Feature", "properties": { "county": "Spartanburg", "state": "South Carolina", "fips": "45083", "cases": 19613, "deaths": 388 }, "geometry": { "type": "Point", "coordinates": [ -81.9923963, 34.9295155 ] } }
{ "type": "Feature", "properties": { "county": "Saluda", "state": "South Carolina", "fips": "45081", "cases": 988, "deaths": 28 }, "geometry": { "type": "Point", "coordinates": [ -81.7271324, 34.0079582 ] } }
{ "type": "Feature", "properties": { "county": "Washington", "state": "Wisconsin", "fips": "55131", "cases": 13052, "deaths": 102 }, "geometry": { "type": "Point", "coordinates": [ -88.2324557, 43.369561 ] } }
{ "type": "Feature", "properties": { "county": "Garfield", "state": "Washington", "fips": "53023", "cases": 95, "deaths": 2 }, "geometry": { "type": "Point", "coordinates": [ -117.5454032, 46.431975 ] } }
{ "type": "Feature", "properties": { "county": "Pipestone", "state": "Minnesota", "fips": "27117", "cases": 866, "deaths": 21 }, "geometry": { "type": "Point", "coordinates": [ -96.2584114, 44.0230162 ] } }
{ "type": "Feature", "properties": { "county": "Rock", "state": "Minnesota", "fips": "27133", "cases": 1015, "deaths": 10 }, "geometry": { "type": "Point", "coordinates": [ -96.2529683, 43.6748268 ] } }
{ "type": "Feature", "properties": { "county": "Jefferson", "state": "Oregon", "fips": "41031", "cases": 1392, "deaths": 17 }, "geometry": { "type": "Point", "coordinates": [ -121.17832, 44.6280684 ] } }
{ "type": "Feature", "properties": { "county": "Wheatland", "state": "Montana", "fips": "30107", "cases": 139, "deaths": 6 }, "geometry": { "type": "Point", "coordinates": [ -109.8464684, 46.4665298 ] } }
{ "type": "Feature", "properties": { "county": "Louisa", "state": "Virginia", "fips": "51109", "cases": 883, "deaths": 9 }, "geometry": { "type": "Point", "coordinates": [ -77.9627492, 37.9784971 ] } }
{ "type": "Feature", "properties": { "county": "Steele", "state": "Minnesota", "fips": "27147", "cases": 2498, "deaths": 9 }, "geometry": { "type": "Point", "coordinates": [ -93.2262709, 44.0224035 ] } }
{ "type": "Feature", "properties": { "county": "Miller", "state": "Missouri", "fips": "29131", "cases": 2006, "deaths": 41 }, "geometry": { "type": "Point", "coordinates": [ -92.426109, 38.2145029 ] } }
{ "type": "Feature", "properties": { "county": "Todd", "state": "Minnesota", "fips": "27153", "cases": 2219, "deaths": 26 }, "geometry": { "type": "Point", "coordinates": [ -94.897853, 46.0699623 ] } }
{ "type": "Feature", "properties": { "county": "Fayette", "state": "Alabama", "fips": "01057", "cases": 1416, "deaths": 19 }, "geometry": { "type": "Point", "coordinates": [ -87.7388664, 33.7207694 ] } }
{ "type": "Feature", "properties": { "county": "Fremont", "state": "Iowa", "fips": "19071", "cases": 466, "deaths": 5 }, "geometry": { "type": "Point", "coordinates": [ -95.6012904, 40.7454272 ] } }
{ "type": "Feature", "properties": { "county": "Clay", "state": "Indiana", "fips": "18021", "cases": 1852, "deaths": 30 }, "geometry": { "type": "Point", "coordinates": [ -87.1172351, 39.3956183 ] } }
{ "type": "Feature", "properties": { "county": "Box Butte", "state": "Nebraska", "fips": "31013", "cases": 779, "deaths": 8 }, "geometry": { "type": "Point", "coordinates": [ -103.0883791, 42.2216576 ] } }
{ "type": "Feature", "properties": { "county": "Hinds", "state": "Mississippi", "fips": "28049", "cases": 13807, "deaths": 263 }, "geometry": { "type": "Point", "coordinates": [ -90.4443545, 32.2656285 ] } }
{ "type": "Feature", "properties": { "county": "Hendricks", "state": "Indiana", "fips": "18063", "cases": 11281, "deaths": 225 }, "geometry": { "type": "Point", "coordinates": [ -86.5118581, 39.7696617 ] } }
{ "type": "Feature", "properties": { "county": "Perry", "state": "Illinois", "fips": "17145", "cases": 2121, "deaths": 52 }, "geometry": { "type": "Point", "coordinates": [ -89.368, 38.0847881 ] } }
{ "type": "Feature", "properties": { "county": "Vance", "state": "North Carolina", "fips": "37181", "cases": 2651, "deaths": 68 }, "geometry": { "type": "Point", "coordinates": [ -78.4067118, 36.3688136 ] } }
{ "type": "Feature", "properties": { "county": "Allen", "state": "Kansas", "fips": "20001", "cases": 653, "deaths": 1 }, "geometry": { "type": "Point", "coordinates": [ -95.300183, 37.8854752 ] } }
{ "type": "Feature", "properties": { "county": "Comanche", "state": "Texas", "fips": "48093", "cases": 993, "deaths": 28 }, "geometry": { "type": "Point", "coordinates": [ -98.5587644, 31.9485469 ] } }
{ "type": "Feature", "properties": { "county": "Harvey", "state": "Kansas", "fips": "20079", "cases": 2623, "deaths": 27 }, "geometry": { "type": "Point", "coordinates": [ -97.4274757, 38.0429378 ] } }
{ "type": "Feature", "properties": { "county": "Gratiot", "state": "Michigan", "fips": "26057", "cases": 4148, "deaths": 71 }, "geometry": { "type": "Point", "coordinates": [ -84.6050542, 43.2926561 ] } }
{ "type": "Feature", "properties": { "county": "Lyon", "state": "Kansas", "fips": "20111", "cases": 3366, "deaths": 59 }, "geometry": { "type": "Point", "coordinates": [ -96.1527571, 38.4557616 ] } }
{ "type": "Feature", "properties": { "county": "Smith", "state": "Tennessee", "fips": "47159", "cases": 2021, "deaths": 24 }, "geometry": { "type": "Point", "coordinates": [ -85.9541105, 36.2535977 ] } }
{ "type": "Feature", "properties": { "county": "Ingham", "state": "Michigan", "fips": "26065", "cases": 12635, "deaths": 184 }, "geometry": { "type": "Point", "coordinates": [ -84.3747207, 42.5971689 ] } }
{ "type": "Feature", "properties": { "county": "Ionia", "state": "Michigan", "fips": "26067", "cases": 4848, "deaths": 46 }, "geometry": { "type": "Point", "coordinates": [ -85.0741332, 42.9450224 ] } }
{ "type": "Feature", "properties": { "county": "Logan", "state": "Kentucky", "fips": "21141", "cases": 1697, "deaths": 39 }, "geometry": { "type": "Point", "coordinates": [ -86.877635, 36.8594948 ] } }
{ "type": "Feature", "properties": { "county": "Dimmit", "state": "Texas", "fips": "48127", "cases": 623, "deaths": 11 }, "geometry": { "type": "Point", "coordinates": [ -99.7564509, 28.4227006 ] } }
{ "type": "Feature", "properties": { "county": "Medina", "state": "Texas", "fips": "48325", "cases": 2697, "deaths": 55 }, "geometry": { "type": "Point", "coordinates": [ -99.110303, 29.3557301 ] } }
{ "type": "Feature", "properties": { "county": "Mason", "state": "Kentucky", "fips": "21161", "cases": 920, "deaths": 17 }, "geometry": { "type": "Point", "coordinates": [ -83.8215143, 38.5947201 ] } }
{ "type": "Feature", "properties": { "county": "Lake", "state": "Michigan", "fips": "26085", "cases": 304, "deaths": 9 }, "geometry": { "type": "Point", "coordinates": [ -85.802173, 43.9905089 ] } }
{ "type": "Feature", "properties": { "county": "Kandiyohi", "state": "Minnesota", "fips": "27067", "cases": 5369, "deaths": 64 }, "geometry": { "type": "Point", "coordinates": [ -95.0058645, 45.1526059 ] } }
{ "type": "Feature", "properties": { "county": "Mecosta", "state": "Michigan", "fips": "26107", "cases": 1651, "deaths": 14 }, "geometry": { "type": "Point", "coordinates": [ -85.3246322, 43.6406426 ] } }
{ "type": "Feature", "properties": { "county": "Montgomery", "state": "North Carolina", "fips": "37123", "cases": 1899, "deaths": 46 }, "geometry": { "type": "Point", "coordinates": [ -79.9041666, 35.3315514 ] } }
{ "type": "Feature", "properties": { "county": "Day", "state": "South Dakota", "fips": "46037", "cases": 529, "deaths": 20 }, "geometry": { "type": "Point", "coordinates": [ -97.607375, 45.367281 ] } }
{ "type": "Feature", "properties": { "county": "Hoke", "state": "North Carolina", "fips": "37093", "cases": 2728, "deaths": 35 }, "geometry": { "type": "Point", "coordinates": [ -79.2365203, 35.0188745 ] } }
{ "type": "Feature", "properties": { "county": "Moore", "state": "North Carolina", "fips": "37125", "cases": 4808, "deaths": 76 }, "geometry": { "type": "Point", "coordinates": [ -79.4847463, 35.3088542 ] } }
{ "type": "Feature", "properties": { "county": "Todd", "state": "Kentucky", "fips": "21219", "cases": 686, "deaths": 16 }, "geometry": { "type": "Point", "coordinates": [ -87.1787837, 36.8381152 ] } }
{ "type": "Feature", "properties": { "county": "Kanabec", "state": "Minnesota", "fips": "27065", "cases": 923, "deaths": 18 }, "geometry": { "type": "Point", "coordinates": [ -93.2927519, 45.9459309 ] } }
{ "type": "Feature", "properties": { "county": "Fayette", "state": "Illinois", "fips": "17051", "cases": 2645, "deaths": 49 }, "geometry": { "type": "Point", "coordinates": [ -89.0245188, 39.0007251 ] } }
{ "type": "Feature", "properties": { "county": "Hamilton", "state": "Illinois", "fips": "17065", "cases": 589, "deaths": 10 }, "geometry": { "type": "Point", "coordinates": [ -88.5388123, 38.0816233 ] } }
{ "type": "Feature", "properties": { "county": "Webster", "state": "Kentucky", "fips": "21233", "cases": 741, "deaths": 13 }, "geometry": { "type": "Point", "coordinates": [ -87.6798995, 37.5216836 ] } }
{ "type": "Feature", "properties": { "county": "Donley", "state": "Texas", "fips": "48129", "cases": 230, "deaths": 7 }, "geometry": { "type": "Point", "coordinates": [ -100.8140093, 34.965175 ] } }
{ "type": "Feature", "properties": { "county": "Anoka", "state": "Minnesota", "fips": "27003", "cases": 28886, "deaths": 322 }, "geometry": { "type": "Point", "coordinates": [ -93.246189, 45.2729916 ] } }
{ "type": "Feature", "properties": { "county": "Edwards", "state": "Texas", "fips": "48137", "cases": 183, "deaths": 2 }, "geometry": { "type": "Point", "coordinates": [ -100.304252, 29.9820258 ] } }
{ "type": "Feature", "properties": { "county": "Kingfisher", "state": "Oklahoma", "fips": "40073", "cases": 1353, "deaths": 10 }, "geometry": { "type": "Point", "coordinates": [ -97.9419327, 35.9453001 ] } }
{ "type": "Feature", "properties": { "county": "Fayette", "state": "Texas", "fips": "48149", "cases": 1277, "deaths": 34 }, "geometry": { "type": "Point", "coordinates": [ -96.9207502, 29.8778791 ] } }
{ "type": "Feature", "properties": { "county": "Aiken", "state": "South Carolina", "fips": "45003", "cases": 9036, "deaths": 133 }, "geometry": { "type": "Point", "coordinates": [ -81.636365, 33.5433525 ] } }
{ "type": "Feature", "properties": { "county": "Brookings", "state": "South Dakota", "fips": "46011", "cases": 2956, "deaths": 29 }, "geometry": { "type": "Point", "coordinates": [ -96.7907994, 44.3697438 ] } }
{ "type": "Feature", "properties": { "county": "Pennington", "state": "South Dakota", "fips": "46103", "cases": 11117, "deaths": 128 }, "geometry": { "type": "Point", "coordinates": [ -102.8240771, 44.0025836 ] } }
{ "type": "Feature", "properties": { "county": "Archer", "state": "Texas", "fips": "48009", "cases": 541, "deaths": 6 }, "geometry": { "type": "Point", "coordinates": [ -98.6875769, 33.6157138 ] } }
{ "type": "Feature", "properties": { "county": "Cocke", "state": "Tennessee", "fips": "47029", "cases": 2814, "deaths": 40 }, "geometry": { "type": "Point", "coordinates": [ -83.1183004, 35.9278975 ] } }
{ "type": "Feature", "properties": { "county": "Bailey", "state": "Texas", "fips": "48017", "cases": 719, "deaths": 12 }, "geometry": { "type": "Point", "coordinates": [ -102.8299707, 34.0685484 ] } }
{ "type": "Feature", "properties": { "county": "Dickson", "state": "Tennessee", "fips": "47043", "cases": 4593, "deaths": 59 }, "geometry": { "type": "Point", "coordinates": [ -87.3589171, 36.1466984 ] } }
{ "type": "Feature", "properties": { "county": "Butte", "state": "South Dakota", "fips": "46019", "cases": 877, "deaths": 18 }, "geometry": { "type": "Point", "coordinates": [ -103.5079318, 44.9060874 ] } }
{ "type": "Feature", "properties": { "county": "Chester", "state": "South Carolina", "fips": "45023", "cases": 2219, "deaths": 45 }, "geometry": { "type": "Point", "coordinates": [ -81.1620693, 34.6932077 ] } }
{ "type": "Feature", "properties": { "county": "Elbert", "state": "Georgia", "fips": "13105", "cases": 1620, "deaths": 34 }, "geometry": { "type": "Point", "coordinates": [ -82.8393457, 34.113024 ] } }
{ "type": "Feature", "properties": { "county": "Florence", "state": "South Carolina", "fips": "45041", "cases": 10361, "deaths": 257 }, "geometry": { "type": "Point", "coordinates": [ -79.701068, 34.0243344 ] } }
{ "type": "Feature", "properties": { "county": "Carlton", "state": "Minnesota", "fips": "27017", "cases": 2585, "deaths": 37 }, "geometry": { "type": "Point", "coordinates": [ -92.6760102, 46.591806 ] } }
{ "type": "Feature", "properties": { "county": "Dixie", "state": "Florida", "fips": "12029", "cases": 1099, "deaths": 11 }, "geometry": { "type": "Point", "coordinates": [ -83.1572467, 29.6063109 ] } }
{ "type": "Feature", "properties": { "county": "Crow Wing", "state": "Minnesota", "fips": "27035", "cases": 4491, "deaths": 60 }, "geometry": { "type": "Point", "coordinates": [ -94.0675577, 46.4809662 ] } }
{ "type": "Feature", "properties": { "county": "Baraga", "state": "Michigan", "fips": "26013", "cases": 610, "deaths": 28 }, "geometry": { "type": "Point", "coordinates": [ -88.366403, 46.6715465 ] } }
{ "type": "Feature", "properties": { "county": "Sargent", "state": "North Dakota", "fips": "38081", "cases": 405, "deaths": 5 }, "geometry": { "type": "Point", "coordinates": [ -97.6321716, 46.1083037 ] } }
{ "type": "Feature", "properties": { "county": "Barton", "state": "Kansas", "fips": "20009", "cases": 2201, "deaths": 21 }, "geometry": { "type": "Point", "coordinates": [ -98.7563673, 38.4788968 ] } }
{ "type": "Feature", "properties": { "county": "Delaware", "state": "Indiana", "fips": "18035", "cases": 7549, "deaths": 126 }, "geometry": { "type": "Point", "coordinates": [ -85.3973277, 40.2278725 ] } }
{ "type": "Feature", "properties": { "county": "St. James", "state": "Louisiana", "fips": "22093", "cases": 1311, "deaths": 43 }, "geometry": { "type": "Point", "coordinates": [ -90.8021206, 30.0253172 ] } }
{ "type": "Feature", "properties": { "county": "Clare", "state": "Michigan", "fips": "26035", "cases": 1224, "deaths": 41 }, "geometry": { "type": "Point", "coordinates": [ -84.8482161, 43.9879791 ] } }
{ "type": "Feature", "properties": { "county": "Ramsey", "state": "North Dakota", "fips": "38071", "cases": 1458, "deaths": 18 }, "geometry": { "type": "Point", "coordinates": [ -98.7198473, 48.2690946 ] } }
{ "type": "Feature", "properties": { "county": "Ada", "state": "Idaho", "fips": "16001", "cases": 37936, "deaths": 343 }, "geometry": { "type": "Point", "coordinates": [ -116.2415516, 43.4526575 ] } }
{ "type": "Feature", "properties": { "county": "Madison", "state": "Ohio", "fips": "39097", "cases": 2891, "deaths": 25 }, "geometry": { "type": "Point", "coordinates": [ -83.4017832, 39.8938107 ] } }
{ "type": "Feature", "properties": { "county": "Anderson", "state": "Kansas", "fips": "20003", "cases": 564, "deaths": 0 }, "geometry": { "type": "Point", "coordinates": [ -95.2927282, 38.2141325 ] } }
{ "type": "Feature", "properties": { "county": "Clarke", "state": "Iowa", "fips": "19039", "cases": 681, "deaths": 6 }, "geometry": { "type": "Point", "coordinates": [ -93.7853069, 41.0290286 ] } }
{ "type": "Feature", "properties": { "county": "Amelia", "state": "Virginia", "fips": "51007", "cases": 348, "deaths": 7 }, "geometry": { "type": "Point", "coordinates": [ -77.9858465, 37.3408102 ] } }
{ "type": "Feature", "properties": { "county": "Wilkinson", "state": "Georgia", "fips": "13319", "cases": 614, "deaths": 18 }, "geometry": { "type": "Point", "coordinates": [ -83.1713975, 32.8029106 ] } }
{ "type": "Feature", "properties": { "county": "Zavala", "state": "Texas", "fips": "48507", "cases": 944, "deaths": 25 }, "geometry": { "type": "Point", "coordinates": [ -99.7605083, 28.8661724 ] } }
{ "type": "Feature", "properties": { "county": "Geauga", "state": "Ohio", "fips": "39055", "cases": 3964, "deaths": 53 }, "geometry": { "type": "Point", "coordinates": [ -81.1793534, 41.4995232 ] } }
{ "type": "Feature", "properties": { "county": "Floyd", "state": "Kentucky", "fips": "21071", "cases": 1805, "deaths": 15 }, "geometry": { "type": "Point", "coordinates": [ -82.7473896, 37.5572037 ] } }
{ "type": "Feature", "properties": { "county": "Lubbock", "state": "Texas", "fips": "48303", "cases": 41878, "deaths": 552 }, "geometry": { "type": "Point", "coordinates": [ -101.8204789, 33.610086 ] } }
{ "type": "Feature", "properties": { "county": "Terrell", "state": "Georgia", "fips": "13273", "cases": 565, "deaths": 35 }, "geometry": { "type": "Point", "coordinates": [ -84.4438153, 31.7753827 ] } }
{ "type": "Feature", "properties": { "county": "Cherokee", "state": "Iowa", "fips": "19035", "cases": 1229, "deaths": 20 }, "geometry": { "type": "Point", "coordinates": [ -95.623894, 42.7353891 ] } }
{ "type": "Feature", "properties": { "county": "Boise", "state": "Idaho", "fips": "16015", "cases": 245, "deaths": 2 }, "geometry": { "type": "Point", "coordinates": [ -115.7308739, 43.9891739 ] } }
{ "type": "Feature", "properties": { "county": "Highland", "state": "Ohio", "fips": "39071", "cases": 2069, "deaths": 18 }, "geometry": { "type": "Point", "coordinates": [ -83.6033146, 39.1839264 ] } }
{ "type": "Feature", "properties": { "county": "Pulaski", "state": "Illinois", "fips": "17153", "cases": 550, "deaths": 3 }, "geometry": { "type": "Point", "coordinates": [ -89.13085, 37.2263142 ] } }
{ "type": "Feature", "properties": { "county": "Isanti", "state": "Minnesota", "fips": "27059", "cases": 2620, "deaths": 31 }, "geometry": { "type": "Point", "coordinates": [ -93.2948764, 45.5618123 ] } }
{ "type": "Feature", "properties": { "county": "Dooly", "state": "Georgia", "fips": "13093", "cases": 667, "deaths": 25 }, "geometry": { "type": "Point", "coordinates": [ -83.7974845, 32.1563089 ] } }
{ "type": "Feature", "properties": { "county": "Watonwan", "state": "Minnesota", "fips": "27165", "cases": 1023, "deaths": 7 }, "geometry": { "type": "Point", "coordinates": [ -94.6141385, 43.978239 ] } }
{ "type": "Feature", "properties": { "county": "Lafayette", "state": "Arkansas", "fips": "05073", "cases": 341, "deaths": 4 }, "geometry": { "type": "Point", "coordinates": [ -93.6067707, 33.2411671 ] } }
{ "type": "Feature", "properties": { "county": "Alexander", "state": "North Carolina", "fips": "37003", "cases": 2642, "deaths": 30 }, "geometry": { "type": "Point", "coordinates": [ -81.1775195, 35.9223796 ] } }
{ "type": "Feature", "properties": { "county": "Somervell", "state": "Texas", "fips": "48425", "cases": 724, "deaths": 6 }, "geometry": { "type": "Point", "coordinates": [ -97.7740349, 32.222368 ] } }
{ "type": "Feature", "properties": { "county": "Warren", "state": "Georgia", "fips": "13301", "cases": 282, "deaths": 9 }, "geometry": { "type": "Point", "coordinates": [ -82.6779615, 33.4114657 ] } }
{ "type": "Feature", "properties": { "county": "Mecklenburg", "state": "North Carolina", "fips": "37119", "cases": 62240, "deaths": 561 }, "geometry": { "type": "Point", "coordinates": [ -80.8317116, 35.2445475 ] } }
{ "type": "Feature", "properties": { "county": "Marion", "state": "Ohio", "fips": "39101", "cases": 6684, "deaths": 105 }, "geometry": { "type": "Point", "coordinates": [ -83.157363, 40.5861066 ] } }
{ "type": "Feature", "properties": { "county": "Newton", "state": "Indiana", "fips": "18111", "cases": 822, "deaths": 20 }, "geometry": { "type": "Point", "coordinates": [ -87.3963577, 40.9561045 ] } }
{ "type": "Feature", "properties": { "county": "Johnson", "state": "Kansas", "fips": "20091", "cases": 38865, "deaths": 447 }, "geometry": { "type": "Point", "coordinates": [ -94.8225084, 38.8854824 ] } }
{ "type": "Feature", "properties": { "county": "Davis", "state": "Iowa", "fips": "19051", "cases": 637, "deaths": 18 }, "geometry": { "type": "Point", "coordinates": [ -92.4100547, 40.7477354 ] } }
{ "type": "Feature", "properties": { "county": "Kit Carson", "state": "Colorado", "fips": "08063", "cases": 432, "deaths": 9 }, "geometry": { "type": "Point", "coordinates": [ -102.6022199, 39.3049778 ] } }
{ "type": "Feature", "properties": { "county": "Livingston", "state": "Illinois", "fips": "17105", "cases": 3118, "deaths": 58 }, "geometry": { "type": "Point", "coordinates": [ -88.5578223, 40.8919034 ] } }
{ "type": "Feature", "properties": { "county": "Troup", "state": "Georgia", "fips": "13285", "cases": 4958, "deaths": 127 }, "geometry": { "type": "Point", "coordinates": [ -85.0281212, 33.033492 ] } }
{ "type": "Feature", "properties": { "county": "Fayette", "state": "Iowa", "fips": "19065", "cases": 1396, "deaths": 17 }, "geometry": { "type": "Point", "coordinates": [ -91.8441231, 42.862718 ] } }
{ "type": "Feature", "properties": { "county": "McPherson", "state": "Kansas", "fips": "20113", "cases": 2348, "deaths": 26 }, "geometry": { "type": "Point", "coordinates": [ -97.6476987, 38.3918486 ] } }
{ "type": "Feature", "properties": { "county": "Franklin", "state": "Iowa", "fips": "19069", "cases": 895, "deaths": 17 }, "geometry": { "type": "Point", "coordinates": [ -93.2625692, 42.7327038 ] } }
{ "type": "Feature", "properties": { "county": "Dale", "state": "Alabama", "fips": "01045", "cases": 3283, "deaths": 63 }, "geometry": { "type": "Point", "coordinates": [ -85.6108526, 31.4306667 ] } }
{ "type": "Feature", "properties": { "county": "McLennan", "state": "Texas", "fips": "48309", "cases": 18780, "deaths": 281 }, "geometry": { "type": "Point", "coordinates": [ -97.2021769, 31.5525545 ] } }
{ "type": "Feature", "properties": { "county": "Okeechobee", "state": "Florida", "fips": "12093", "cases": 2387, "deaths": 51 }, "geometry": { "type": "Point", "coordinates": [ -80.8874097, 27.3856218 ] } }
{ "type": "Feature", "properties": { "county": "Menard", "state": "Illinois", "fips": "17129", "cases": 721, "deaths": 8 }, "geometry": { "type": "Point", "coordinates": [ -89.8025687, 40.0274365 ] } }
{ "type": "Feature", "properties": { "county": "Dickenson", "state": "Virginia", "fips": "51051", "cases": 626, "deaths": 4 }, "geometry": { "type": "Point", "coordinates": [ -82.3512494, 37.1255915 ] } }
{ "type": "Feature", "properties": { "county": "Phillips", "state": "Colorado", "fips": "08095", "cases": 278, "deaths": 7 }, "geometry": { "type": "Point", "coordinates": [ -102.3577694, 40.594144 ] } }
{ "type": "Feature", "properties": { "county": "Thomas", "state": "Kansas", "fips": "20193", "cases": 931, "deaths": 7 }, "geometry": { "type": "Point", "coordinates": [ -101.0553705, 39.3510757 ] } }
{ "type": "Feature", "properties": { "county": "Latah", "state": "Idaho", "fips": "16057", "cases": 2147, "deaths": 6 }, "geometry": { "type": "Point", "coordinates": [ -116.7113698, 46.8158789 ] } }
{ "type": "Feature", "properties": { "county": "Marion", "state": "Iowa", "fips": "19125", "cases": 2701, "deaths": 47 }, "geometry": { "type": "Point", "coordinates": [ -93.0993478, 41.334451 ] } }
{ "type": "Feature", "properties": { "county": "Clarke", "state": "Georgia", "fips": "13059", "cases": 9988, "deaths": 65 }, "geometry": { "type": "Point", "coordinates": [ -83.3712335, 33.9543664 ] } }
{ "type": "Feature", "properties": { "county": "Montgomery", "state": "Iowa", "fips": "19137", "cases": 761, "deaths": 15 }, "geometry": { "type": "Point", "coordinates": [ -95.156429, 41.0301871 ] } }
{ "type": "Feature", "properties": { "county": "Plymouth", "state": "Iowa", "fips": "19149", "cases": 3343, "deaths": 51 }, "geometry": { "type": "Point", "coordinates": [ -96.2136662, 42.737633 ] } }
{ "type": "Feature", "properties": { "county": "Poweshiek", "state": "Iowa", "fips": "19157", "cases": 1196, "deaths": 24 }, "geometry": { "type": "Point", "coordinates": [ -92.5315573, 41.6862543 ] } }
{ "type": "Feature", "properties": { "county": "Tazewell", "state": "Illinois", "fips": "17179", "cases": 10269, "deaths": 192 }, "geometry": { "type": "Point", "coordinates": [ -89.5140466, 40.5071619 ] } }
{ "type": "Feature", "properties": { "county": "Elbert", "state": "Colorado", "fips": "08039", "cases": 969, "deaths": 9 }, "geometry": { "type": "Point", "coordinates": [ -104.1358721, 39.2865677 ] } }
{ "type": "Feature", "properties": { "county": "Warren", "state": "Kentucky", "fips": "21227", "cases": 10194, "deaths": 84 }, "geometry": { "type": "Point", "coordinates": [ -86.4267275, 36.9990304 ] } }
{ "type": "Feature", "properties": { "county": "Polk", "state": "Iowa", "fips": "19153", "cases": 41183, "deaths": 408 }, "geometry": { "type": "Point", "coordinates": [ -93.5776746, 41.6867948 ] } }
{ "type": "Feature", "properties": { "county": "Sherman", "state": "Texas", "fips": "48421", "cases": 108, "deaths": 6 }, "geometry": { "type": "Point", "coordinates": [ -101.8933156, 36.2775147 ] } }
{ "type": "Feature", "properties": { "county": "Valencia", "state": "New Mexico", "fips": "35061", "cases": 5100, "deaths": 66 }, "geometry": { "type": "Point", "coordinates": [ -106.8103733, 34.7166983 ] } }
{ "type": "Feature", "properties": { "county": "Scott", "state": "Mississippi", "fips": "28123", "cases": 2111, "deaths": 40 }, "geometry": { "type": "Point", "coordinates": [ -89.5378944, 32.4067041 ] } }
{ "type": "Feature", "properties": { "county": "Frontier", "state": "Nebraska", "fips": "31063", "cases": 150, "deaths": 1 }, "geometry": { "type": "Point", "coordinates": [ -100.3924658, 40.5299301 ] } }
{ "type": "Feature", "properties": { "county": "Limestone", "state": "Alabama", "fips": "01083", "cases": 6724, "deaths": 56 }, "geometry": { "type": "Point", "coordinates": [ -86.9831031, 34.8118681 ] } }
{ "type": "Feature", "properties": { "county": "Flagler", "state": "Florida", "fips": "12035", "cases": 3637, "deaths": 48 }, "geometry": { "type": "Point", "coordinates": [ -81.3150859, 29.4593358 ] } }
{ "type": "Feature", "properties": { "county": "Hernando", "state": "Florida", "fips": "12053", "cases": 7230, "deaths": 275 }, "geometry": { "type": "Point", "coordinates": [ -82.427002, 28.5536446 ] } }
{ "type": "Feature", "properties": { "county": "Okaloosa", "state": "Florida", "fips": "12091", "cases": 12662, "deaths": 226 }, "geometry": { "type": "Point", "coordinates": [ -86.592671, 30.6914303 ] } }
{ "type": "Feature", "properties": { "county": "Dougherty", "state": "Georgia", "fips": "13095", "cases": 4687, "deaths": 212 }, "geometry": { "type": "Point", "coordinates": [ -84.2184984, 31.5329885 ] } }
{ "type": "Feature", "properties": { "county": "Seminole", "state": "Georgia", "fips": "13253", "cases": 675, "deaths": 12 }, "geometry": { "type": "Point", "coordinates": [ -84.8682376, 30.9346624 ] } }
{ "type": "Feature", "properties": { "county": "Pike", "state": "Mississippi", "fips": "28113", "cases": 2200, "deaths": 70 }, "geometry": { "type": "Point", "coordinates": [ -90.4039257, 31.1750779 ] } }
{ "type": "Feature", "properties": { "county": "Jasper", "state": "Mississippi", "fips": "28061", "cases": 1405, "deaths": 25 }, "geometry": { "type": "Point", "coordinates": [ -89.1178687, 32.019221 ] } }
{ "type": "Feature", "properties": { "county": "Edmunds", "state": "South Dakota", "fips": "46045", "cases": 362, "deaths": 4 }, "geometry": { "type": "Point", "coordinates": [ -99.2154542, 45.4184645 ] } }
{ "type": "Feature", "properties": { "county": "Lawrence", "state": "Tennessee", "fips": "47099", "cases": 4369, "deaths": 57 }, "geometry": { "type": "Point", "coordinates": [ -87.3973726, 35.2180666 ] } }
{ "type": "Feature", "properties": { "county": "Harrison", "state": "Mississippi", "fips": "28047", "cases": 10550, "deaths": 156 }, "geometry": { "type": "Point", "coordinates": [ -89.1246758, 30.5135975 ] } }
{ "type": "Feature", "properties": { "county": "Waushara", "state": "Wisconsin", "fips": "55137", "cases": 2052, "deaths": 18 }, "geometry": { "type": "Point", "coordinates": [ -89.2431711, 44.1132442 ] } }
{ "type": "Feature", "properties": { "county": "Union", "state": "Tennessee", "fips": "47173", "cases": 1208, "deaths": 14 }, "geometry": { "type": "Point", "coordinates": [ -83.836519, 36.2859043 ] } }
{ "type": "Feature", "properties": { "county": "Autauga", "state": "Alabama", "fips": "01001", "cases": 4164, "deaths": 48 }, "geometry": { "type": "Point", "coordinates": [ -86.6436477, 32.5386663 ] } }
{ "type": "Feature", "properties": { "county": "Howard", "state": "Missouri", "fips": "29089", "cases": 612, "deaths": 2 }, "geometry": { "type": "Point", "coordinates": [ -92.697485, 39.1435481 ] } }
{ "type": "Feature", "properties": { "county": "Linn", "state": "Missouri", "fips": "29115", "cases": 414, "deaths": 11 }, "geometry": { "type": "Point", "coordinates": [ -93.1070411, 39.8700177 ] } }
{ "type": "Feature", "properties": { "county": "Palo Pinto", "state": "Texas", "fips": "48363", "cases": 1852, "deaths": 44 }, "geometry": { "type": "Point", "coordinates": [ -98.31319, 32.7531098 ] } }
{ "type": "Feature", "properties": { "county": "Roger Mills", "state": "Oklahoma", "fips": "40129", "cases": 253, "deaths": 6 }, "geometry": { "type": "Point", "coordinates": [ -99.6966617, 35.6871172 ] } }
{ "type": "Feature", "properties": { "county": "Gwinnett", "state": "Georgia", "fips": "13135", "cases": 56521, "deaths": 597 }, "geometry": { "type": "Point", "coordinates": [ -84.0213853, 33.9604568 ] } }
{ "type": "Feature", "properties": { "county": "Johnson", "state": "Georgia", "fips": "13167", "cases": 720, "deaths": 33 }, "geometry": { "type": "Point", "coordinates": [ -82.6616695, 32.7021149 ] } }
{ "type": "Feature", "properties": { "county": "Lee", "state": "Arkansas", "fips": "05077", "cases": 1425, "deaths": 26 }, "geometry": { "type": "Point", "coordinates": [ -90.7838387, 34.784989 ] } }
{ "type": "Feature", "properties": { "county": "St. Francis", "state": "Arkansas", "fips": "05123", "cases": 2714, "deaths": 20 }, "geometry": { "type": "Point", "coordinates": [ -90.7482814, 35.0220198 ] } }
{ "type": "Feature", "properties": { "county": "Cross", "state": "Arkansas", "fips": "05037", "cases": 1377, "deaths": 36 }, "geometry": { "type": "Point", "coordinates": [ -90.7718582, 35.296314 ] } }
{ "type": "Feature", "properties": { "county": "Oneida", "state": "Wisconsin", "fips": "55085", "cases": 2848, "deaths": 50 }, "geometry": { "type": "Point", "coordinates": [ -89.519441, 45.706779 ] } }
{ "type": "Feature", "properties": { "county": "Vilas", "state": "Wisconsin", "fips": "55125", "cases": 1651, "deaths": 23 }, "geometry": { "type": "Point", "coordinates": [ -89.517192, 46.0546733 ] } }
{ "type": "Feature", "properties": { "county": "Davison", "state": "South Dakota", "fips": "46035", "cases": 2707, "deaths": 53 }, "geometry": { "type": "Point", "coordinates": [ -98.1444824, 43.6748743 ] } }
{ "type": "Feature", "properties": { "county": "Paulding", "state": "Ohio", "fips": "39125", "cases": 1147, "deaths": 19 }, "geometry": { "type": "Point", "coordinates": [ -84.5801017, 41.1167634 ] } }
{ "type": "Feature", "properties": { "county": "Lebanon", "state": "Pennsylvania", "fips": "42075", "cases": 8716, "deaths": 152 },